Time, Aileron Command (norm), Elevator Command (norm), Rudder Command (norm), Flap Command (norm), Left Aileron Position (deg), Right Aileron Position (deg), Elevator Position (deg), Rudder Position (deg), Flap Position (deg), P (deg/s), Q (deg/s), R (deg/s), P dot (deg/s^2), Q dot (deg/s^2), R dot (deg/s^2), q bar (psf), Reynolds Number, V_{Total} (ft/s), V_{Inertial} (ft/s), UBody, VBody, WBody, Aero V_{X Body} (ft/s), Aero V_{Y Body} (ft/s), Aero V_{Z Body} (ft/s), V_{North} (ft/s), V_{East} (ft/s), V_{Down} (ft/s), Altitude ASL (ft), Altitude AGL (ft), Phi (deg), Theta (deg), Psi (deg), Alpha (deg), Beta (deg), Latitude (deg), Longitude (deg), ECEF X (ft), ECEF Y (ft), ECEF Z (ft), EPA (deg), Distance AGL (ft), Terrain Radius (ft), Pitch Trim Sum, Elevator Control, elevator normalization, Roll-Trim-Sum, Left Aileron Control, Right Aileron Control, left aileron normalization, right aileron normalization, Rudder Command Sum, Yaw Damper Rate, Yaw Damper Beta, Yaw Damper Sum, Yaw Damper Final, Rudder Sum, Rudder Control, rudder normalization, Flaps Control, flap normalization, Gear Control, Speedbrake Control, vc-kts, alphadot-deg sec, betadot-deg sec, throttle-cmd-norm
0.00833333, 0, 0, 0, 0.5, 0, 0, 3.089208813, 0, 15, -0.0000000000000000, 0.0000000133552909, 0.0000000000000000, -0.0000000000000013, 0.0000010753622376, 0.0000000000000036, 47.03508801, 7756894.609, 223.054207721, 1542.68941705, 222.2503508670090753, 0.0000000000001561, -18.9198605091338301, 222.2503508670090753, 0.0000000000001561, -18.9198605091338301, 223.0542040689011571, 0.0000000000000000, -0.0000195493242359, 7629.0000003316, 7629.0000003316, -0.0000000000000000, -4.8657680157978147, 0.0000000000000000, -4.8657780829154, 4.0103549855054e-14, 1.0175232887066e-05, 8.2431423420858e-29, 20933279.0000000000000000, 0.0000000000000000, 3.7175685349764671, 6.9634541608622e-05, 7629.0000003316, 20925650, 0.154048185, 0.0539168646, 0.154048185, 0, 0, 0, 0, 0, 0, 0, 0, 0, 0, 0, 0, 0, 15, 0.5, 1, 0, 117.5736594, 3.534761484e-06, 9.624855068e-12, 0.6634132059
0.02499999, 0, 0, 0, 0.5, 0, 0, 3.089208813, -1.468236793e-15, 15, -0.0000000000000145, 0.0000000754277508, -0.0000000000000065, -0.0000000000009914, 0.0000037341869207, -0.0000000000004068, 47.03509106, 7756894.86, 223.054214951, 1542.68941811, 222.2503580738861899, 0.0000000000011183, -18.9198610869934356, 222.2503580738861899, 0.0000000000011183, -18.9198610869934356, 223.0542113488322968, 0.0000000000005678, -0.0000589324441869, 7629.000001315, 7629.0000013188, -0.0000000000000000, -4.8657578399688486, 360.0000030593939755, -4.8657780737906, 2.8726801643839e-13, 2.035046606585e-05, 1.0036957021059e-20, 20933278.9999999925494194, 0.0000000000000037, 7.4351371765334893, 0.00013926908321724, 7629.0000013188, 20925650, 0.154048185, 0.0539168646, 0.154048185, 0, 0, 0, 0, 0, 0, -7.32159029e-17, 0, -7.32159029e-17, -7.32159029e-17, -7.32159029e-17, -2.5625566e-17, -7.32159029e-17, 15, 0.5, 1, 0, 117.5736632, -2.418955096e-06, 1.818076247e-11, 0.6634132059
0.04166665, 0, 0, 0, 0.5, 0, 0, 3.089208813, -1.017261805e-14, 15, -0.0000000000000617, 0.0000001843778268, -0.0000000000000285, -0.0000000000028144, 0.0000065463326418, -0.0000000000013792, 47.03509406, 7756895.107, 223.054222081, 1542.68941914, 222.2503651481938505, 0.0000000000021589, -18.9198620359037797, 222.2503651481938505, 0.0000000000021589, -18.9198620359037797, 223.0542185284978984, 0.0000000000016876, -0.0000987059373152, 7629.0000029542, 7629.0000029542, -0.0000000000000006, -4.8657476627192029, 360.0000030593939755, -4.8657781625222, 5.5456678144726e-13, 3.0525699574442e-05, 6.126480826422e-20, 20933278.9999999850988388, 0.0000000000000224, 11.1527059385882001, 0.00020890362482587, 7629.0000029542, 20925650, 0.154048185, 0.0539168646, 0.154048185, 0, 0, 0, 0, 0, 0, -5.07273363e-16, 0, -5.07273363e-16, -5.07273363e-16, -5.07273363e-16, -1.77545677e-16, -5.07273363e-16, 15, 0.5, 1, 0, 117.5736669, -8.208438256e-06, 1.208695373e-11, 0.6634132059
0.05833331, 0, 0, 0, 0.5, 0, 0, 3.089208813, -3.59708711e-14, 15, -0.0000000000001200, 0.0000003426075912, -0.0000000000000868, -0.0000000000033540, 0.0000095024649626, -0.0000000000035925, 47.03509703, 7756895.351, 223.054229109, 1542.68942017, 222.2503720902891189, 0.0000000000023393, -18.9198633452519580, 222.2503720902891189, 0.0000000000023393, -18.9198633452519580, 223.0542256072633052, 0.0000000000024119, -0.0001388621390568, 7629.0000052676, 7629.0000052676, -0.0000000000000020, -4.8657374832500624, 360.0000030593939755, -4.8657783463863, 6.0089537731213e-13, 4.0700933408254e-05, 1.5723354393506e-19, 20933278.9999999850988388, 0.0000000000000574, 14.8702748194639831, 0.00027853816643449, 7629.0000052676, 20925650, 0.154048185, 0.0539168646, 0.154048185, 0, 0, 0, 0, 0, 0, -1.79374323e-15, 0, -1.79374323e-15, -1.79374323e-15, -1.79374323e-15, -6.2781013e-16, -1.79374323e-15, 15, 0.5, 1, 0, 117.5736706, -1.383491957e-05, -8.29021813e-12, 0.6634132059
0.07499997, 0, 0, 0, 0.5, 0, 0, 3.089208813, -9.723821847e-14, 15, -0.0000000000001355, 0.0000005523455104, -0.0000000000002128, -0.0000000000006735, 0.0000125923235694, -0.0000000000076990, 47.03509994, 7756895.592, 223.054236035, 1542.68942118, 222.2503789005361057, 0.0000000000007445, -18.9198650044753158, 222.2503789005361057, 0.0000000000007445, -18.9198650044753158, 223.0542325845905793, 0.0000000000018114, -0.0001793936719352, 7629.0000082478, 7629.0000082478, -0.0000000000000042, -4.8657273007209945, 360.0000030593939755, -4.8657786226714, 1.9122646739019e-13, 5.087616756267e-05, 2.5864428134632e-19, 20933278.9999999962747097, 0.0000000000000945, 18.5878438174748020, 0.00034817270804311, 7629.0000082478, 20925650, 0.154048185, 0.0539168646, 0.154048185, 0, 0, 0, 0, 0, 0, -4.84893445e-15, 0, -4.84893445e-15, -4.84893445e-15, -4.84893445e-15, -1.69712706e-15, -4.84893445e-15, 15, 0.5, 1, 0, 117.5736742, -1.929905741e-05, -4.258737942e-11, 0.6634132059
0.09166663, 0, 0, 0, 0.5, 0, 0, 3.089208813, -2.197137833e-13, 15, -0.0000000000000251, 0.0000008156541115, -0.0000000000004483, 0.0000000000069899, 0.0000158059528332, -0.0000000000143094, 47.03510282, 7756895.829, 223.054242859, 1542.68942217, 222.2503855793043783, -0.0000000000035170, -18.9198670030599914, 222.2503855793043783, -0.0000000000035170, -18.9198670030599914, 223.0542394599511340, -0.0000000000010209, -0.0002202933458655, 7629.0000119098, 7629.0000119098, -0.0000000000000056, -4.8657171142558377, 360.0000030593939755, -4.8657789886784, -9.0341609731178e-13, 6.1051402033049e-05, 2.8431269765328e-19, 20933279.0000000260770321, 0.0000000000001039, 22.3054129309257299, 0.00041780724965173, 7629.0000119098, 20925650, 0.154048185, 0.0539168646, 0.154048185, 0, 0, 0, 0, 0, 0, -1.09563683e-14, -0, -1.09563683e-14, -1.09563683e-14, -1.09563683e-14, -3.8347289e-15, -1.09563683e-14, 15, 0.5, 1, 0, 117.5736778, -2.460167513e-05, -9.044180296e-11, 0.6634132059
0.10833329, 0, 0, 0, 0.5, 0, 0, 3.089208813, -4.360270925e-13, 15, 0.0000000000003212, 0.0000011344349774, -0.0000000000008448, 0.0000000000212359, 0.0000191336951808, -0.0000000000239947, 47.03510564, 7756896.061, 223.054249581, 1542.68942315, 222.2503921269674834, -0.0000000000113130, -18.9198693305507817, 222.2503921269674834, -0.0000000000113130, -18.9198693305507817, 223.0542462328257329, -0.0000000000069713, -0.0002615541579090, 7629.0000162534, 7629.0000162534, -0.0000000000000031, -4.8657069229454040, 360.0000030593939755, -4.8657794417234, -2.905970971144e-12, 7.1226636814729e-05, 1.121525919062e-19, 20933279.0000000782310963, 0.0000000000000410, 26.0229821581131198, 0.00048744179126036, 7629.0000162534, 20925650, 0.154048185, 0.0539168646, 0.154048185, 0, 0, 0, 0, 0, 0, -2.17431667e-14, -0, -2.17431667e-14, -2.17431667e-14, -2.17431667e-14, -7.61010833e-15, -2.17431667e-14, 15, 0.5, 1, 0, 117.5736812, -2.974373923e-05, -1.514917589e-10, 0.6634132059
0.12499995, 0, 0, 0, 0.5, 0, 0, 3.089208813, -7.852413224e-13, 15, 0.0000000000010373, 0.0000015104335665, -0.0000000000014622, 0.0000000000435110, 0.0000225661843447, -0.0000000000372874, 47.03510843, 7756896.291, 223.054256199, 1542.68942411, 222.2503985439018948, -0.0000000000234881, -18.9198719765603194, 222.2503985439018948, -0.0000000000234881, -18.9198719765603194, 223.0542529027038938, -0.0000000000169049, -0.0003031692911470, 7629.0000212863, 7629.0000212863, 0.0000000000000085, -4.8656967258501345, 360.0000030593939186, -4.8657799791395, -6.0333585962352e-12, 8.1401871903022e-05, -4.1986512596892e-19, 20933279.0000001601874828, -0.0000000000001534, 29.7405514973247378, 0.00055707633286898, 7629.0000212863, 20925650, 0.154048185, 0.0539168646, 0.154048185, 0, 0, 0, 0, 0, 0, -3.91572754e-14, -0, -3.91572754e-14, -3.91572754e-14, -3.91572754e-14, -1.37050464e-14, -3.91572754e-14, 15, 0.5, 1, 0, 117.5736846, -3.472636133e-05, -2.253768293e-10, 0.6634132059
0.14166661, 0, 0, 0, 0.5, 0, 0, 3.089208813, -1.312413358e-12, 15, 0.0000000000022789, 0.0000019452442410, -0.0000000000023691, 0.0000000000751176, 0.0000260943531026, -0.0000000000546830, 47.03511117, 7756896.516, 223.054262714, 1542.68942506, 222.2504048304857633, -0.0000000000408632, -18.9198749307781853, 222.2504048304857633, -0.0000000000408632, -18.9198749307781853, 223.0542594690836324, -0.0000000000316668, -0.0003451321139742, 7629.0000270158, 7629.0000270158, 0.0000000000000370, -4.8656865220026528, 360.0000030593939186, -4.8657805982796, -1.0496505746735e-11, 9.1577107293218e-05, -1.5127776059191e-18, 20933279.0000002793967724, -0.0000000000005527, 33.4581209468399265, 0.0006267108744776, 7629.0000270158, 20925650, 0.154048185, 0.0539168646, 0.154048185, 0, 0, 0, 0, 0, 0, -6.54455259e-14, -0, -6.54455259e-14, -6.54455259e-14, -6.54455259e-14, -2.2905934e-14, -6.54455259e-14, 15, 0.5, 1, 0, 117.5736879, -3.955078484e-05, -3.11738233e-10, 0.6634132059
0.15833327, 0, 0, 0, 0.5, 0, 0, 3.089208813, -2.068170341e-12, 15, 0.0000000000042212, 0.0000024403149988, -0.0000000000036414, 0.0000000001172235, 0.0000297094200618, -0.0000000000766415, 47.03511386, 7756896.738, 223.054269124, 1542.689426, 222.2504109870978368, -0.0000000000642365, -18.9198781829790548, 222.2504109870978368, -0.0000000000642365, -18.9198781829790548, 223.0542659314710079, -0.0000000000520822, -0.0003874361788903, 7629.0000334494, 7629.0000334494, 0.0000000000000929, -4.8656763104102438, 360.0000030593939186, -4.8657812965183, -1.650037535784e-11, 0.00010175234298058, -3.405719097229e-18, 20933279.0000004395842552, -0.0000000000012443, 37.1756905049297259, 0.00069634541608622, 7629.0000334494, 20925650, 0.154048185, 0.0539168646, 0.154048185, 0, 0, 0, 0, 0, 0, -1.03132519e-13, -0, -1.03132519e-13, -1.03132519e-13, -1.03132519e-13, -3.60963816e-14, -1.03132519e-13, 15, 0.5, 1, 0, 117.5736912, -4.421837944e-05, -4.102191248e-10, 0.6634132059
0.17499993, 0, 0, 0, 0.5, 0, 0, 3.089208813, -3.108302247e-12, 15, 0.0000000000070565, 0.0000029969523570, -0.0000000000053625, 0.0000000001708700, 0.0000334028956001, -0.0000000001035885, 47.03511651, 7756896.956, 223.054275429, 1542.68942692, 222.2504170141164650, -0.0000000000943827, -18.9198817230307306, 222.2504170141164650, -0.0000000000943827, -18.9198817230307306, 223.0542722893797816, -0.0000000000789573, -0.0004300752211535, 7629.0000405945, 7629.0000405908, 0.0000000000001901, -4.8656660900572524, 360.0000030593938050, -4.8657820712541, -2.4244001189568e-11, 0.00011192757896036, -6.3750335850957e-18, 20933279.0000006519258022, -0.0000000000023291, 40.8932601698570153, 0.00076597995769484, 7629.0000405908, 20925650, 0.154048185, 0.0539168646, 0.154048185, 0, 0, 0, 0, 0, 0, -1.55000308e-13, -0, -1.55000308e-13, -1.55000308e-13, -1.55000308e-13, -5.42501079e-14, -1.55000308e-13, 15, 0.5, 1, 0, 117.5736944, -4.8730634e-05, -5.20464886e-10, 0.6634132059
0.19166659, 0, 0, 0, 0.5, 0, 0, 3.089208813, -4.493370166e-12, 15, 0.0000000000109927, 0.0000036163260424, -0.0000000000076220, 0.0000000002369800, 0.0000371665724617, -0.0000000001359167, 47.03511912, 7756897.17, 223.05428163, 1542.68942782, 222.2504229119184913, -0.0000000001320537, -18.9198855409014861, 222.2504229119184913, -0.0000000001320537, -18.9198855409014861, 223.0542785423307350, -0.0000000001130796, -0.0004730431573670, 7629.0000484474, 7629.0000484474, 0.0000000000003460, -4.8656558599074025, 360.0000030593936913, -4.8657829199112, -3.3920527271326e-11, 0.00012210281522778, -1.0733410720471e-17, 20933279.0000009126961231, -0.0000000000039215, 44.6108299398766306, 0.00083561449930347, 7629.0000484474, 20925650, 0.154048185, 0.0539168646, 0.154048185, 0, 0, 0, 0, 0, 0, -2.24068866e-13, -0, -2.24068866e-13, -2.24068866e-13, -2.24068866e-13, -7.84241032e-14, -2.24068866e-13, 15, 0.5, 1, 0, 117.5736975, -5.308914945e-05, -6.421234001e-10, 0.6634132059
0.20833325, 0, 0, 0, 0.5, 0, 0, 3.089208813, -6.28832986e-12, 15, 0.0000000000162513, 0.0000042994737140, -0.0000000000105156, 0.0000000003163655, 0.0000409925270112, -0.0000000001739872, 47.03512168, 7756897.38, 223.054287725, 1542.68942871, 222.2504286808783718, -0.0000000001779787, -18.9198896266671746, 222.2504286808783718, -0.0000000001779787, -18.9198896266671746, 223.0542846898518690, -0.0000000001552182, -0.0005163340838514, 7629.0000570193, 7629.0000570193, 0.0000000000005813, -4.8656456189060400, 360.0000030593935207, -4.8657838399415, -4.5717251826579e-11, 0.00013227805177804, -1.6829044748255e-17, 20933279.0000012330710888, -0.0000000000061486, 48.3283998132354782, 0.00090524904091209, 7629.0000570193, 20925650, 0.154048185, 0.0539168646, 0.154048185, 0, 0, 0, 0, 0, 0, -3.13577313e-13, -0, -3.13577313e-13, -3.13577313e-13, -3.13577313e-13, -1.0975206e-13, -3.13577313e-13, 15, 0.5, 1, 0, 117.5737005, -5.729563496e-05, -7.74845319e-10, 0.6634132059
0.22499991, 0, 0, 0, 0.5, 0, 0, 3.089208813, -8.56217025e-12, 15, 0.0000000000230653, 0.0000050473056145, -0.0000000000141446, 0.0000000004097350, 0.0000448731132629, -0.0000000002181308, 47.03512419, 7756897.587, 223.054293713, 1542.68942958, 222.2504343213672087, -0.0000000002328643, -18.9198939705177693, 222.2504343213672087, -0.0000000002328643, -18.9198939705177693, 223.0542907314773799, -0.0000000002061247, -0.0005599422750500, 7629.0000663213, 7629.0000663213, 0.0000000000009211, -4.8656353659822900, 360.0000030593933502, -4.865784828826, -5.9815675563696e-11, 0.00014245328860631, -2.5044816126287e-17, 20933279.0000016205012798, -0.0000000000091502, 52.0459697881726626, 0.00097488358252071, 7629.0000663213, 20925650, 0.154048185, 0.0539168646, 0.154048185, 0, 0, 0, 0, 0, 0, -4.26965888e-13, -0, -4.26965888e-13, -4.26965888e-13, -4.26965888e-13, -1.49438061e-13, -4.26965888e-13, 15, 0.5, 1, 0, 117.5737035, -6.135189442e-05, -9.182843203e-10, 0.6634132059
0.24166657, 0, 0, 0, 0.5, 0, 0, 3.089208813, -1.138756648e-11, 15, 0.0000000000316781, 0.0000058606091200, -0.0000000000186153, 0.0000000005177004, 0.0000488009585971, -0.0000000002686492, 47.03512665, 7756897.79, 223.054299595, 1542.68943044, 222.2504398337519831, -0.0000000002973948, -18.9198985627634144, 222.2504398337519831, -0.0000000002973948, -18.9198985627634144, 223.0542966667479448, -0.0000000002665335, -0.0006038621815065, 7629.0000763498, 7629.0000763498, 0.0000000000013945, -4.8656251000511492, 360.0000030593930660, -4.8657858840767, -7.6391554071157e-11, 0.00015262852570776, -3.5797495533535e-17, 20933279.0000020749866962, -0.0000000000130788, 55.7635398629195720, 0.0010445181241293, 7629.0000763498, 20925650, 0.154048185, 0.0539168646, 0.154048185, 0, 0, 0, 0, 0, 0, -5.67858649e-13, -0, -5.67858649e-13, -5.67858649e-13, -5.67858649e-13, -1.98750527e-13, -5.67858649e-13, 15, 0.5, 1, 0, 117.5737064, -6.525982392e-05, -1.07209734e-09, 0.6634132059
0.25833323, 0, 0, 0, 0.5, 0, 0, 3.089208813, -1.484054712e-11, 15, 0.0000000000423418, 0.0000067400532674, -0.0000000000240385, 0.0000000006407830, 0.0000527689632817, -0.0000000003258160, 47.03512907, 7756897.988, 223.05430537, 1542.68943128, 222.2504452183945602, -0.0000000003722321, -18.9199033938402472, 222.2504452183945602, -0.0000000003722321, -18.9199033938402472, 223.0543024952099813, -0.0000000003371621, -0.0006480884278766, 7629.0000871085, 7629.0000871085, 0.0000000000020346, -4.8656148200154874, 360.0000030593927249, -4.8657870032379, -9.5614954027601e-11, 0.00016280376307752, -4.9536969952703e-17, 20933279.0000026039779186, -0.0000000000180986, 59.4811100356999916, 0.001114152665738, 7629.0000871085, 20925650, 0.154048185, 0.0539168646, 0.154048185, 0, 0, 0, 0, 0, 0, -7.4004688e-13, -0, -7.4004688e-13, -7.4004688e-13, -7.4004688e-13, -2.59016408e-13, -7.4004688e-13, 15, 0.5, 1, 0, 117.5737093, -6.902140934e-05, -1.235944801e-09, 0.6634132059
0.27499989, 0, 0, 0, 0.5, 0, 0, 3.089208813, -1.900017529e-11, 15, 0.0000000000553158, 0.0000076861932507, -0.0000000000305292, 0.0000000007794200, 0.0000567702961971, -0.0000000003898782, 47.03513145, 7756898.183, 223.054311038, 1542.68943211, 222.2504504756510926, -0.0000000004580164, -18.9199084543157809, 222.2504504756510926, -0.0000000004580164, -18.9199084543157809, 223.0543082164153645, -0.0000000004187121, -0.0006926158109977, 7629.0000986122, 7629.0000986122, 0.0000000000028794, -4.8656045247679893, 360.0000030593922702, -4.8657881838877, -1.1765031316241e-10, 0.00017297900071072, -6.6745490497192e-17, 20933279.0000032112002373, -0.0000000000243858, 63.1986803047302033, 0.0011837872073466, 7629.0000986122, 20925650, 0.154048185, 0.0539168646, 0.154048185, 0, 0, 0, 0, 0, 0, -9.47473184e-13, -0, -9.47473184e-13, -9.47473184e-13, -9.47473184e-13, -3.31615614e-13, -9.47473184e-13, 15, 0.5, 1, 0, 117.573712, -7.263871438e-05, -1.409490832e-09, 0.6634132059
0.29166655, 0, 0, 0, 0.5, 0, 0, 3.089208813, -2.394824314e-11, 15, 0.0000000000708652, 0.0000086994747271, -0.0000000000382060, 0.0000000009339703, 0.0000607983849825, -0.0000000004610570, 47.03513378, 7756898.374, 223.054316597, 1542.68943292, 222.2504556058711955, -0.0000000005553664, -18.9199137348936475, 222.2504556058711955, -0.0000000005553664, -18.9199137348936475, 223.0543138299214831, -0.0000000005118688, -0.0007374392975272, 7629.0001108572, 7629.0001108609, 0.0000000000039710, -4.8655942131930097, 360.0000030593917018, -4.865789423639, -1.4265650370922e-10, 0.00018315423860244, -8.793694166717e-17, 20933279.0000039041042328, -0.0000000000321282, 66.9162506682190639, 0.0012534217489552, 7629.0001108609, 20925650, 0.154048185, 0.0539168646, 0.154048185, 0, 0, 0, 0, 0, 0, -1.19421626e-12, -0, -1.19421626e-12, -1.19421626e-12, -1.19421626e-12, -4.17975689e-13, -1.19421626e-12, 15, 0.5, 1, 0, 117.5737147, -7.611387377e-05, -1.592403468e-09, 0.6634132059
0.30833321, 0, 0, 0, 0.5, 0, 0, 3.089208813, -2.976897958e-11, 15, 0.0000000000892602, 0.0000097802381690, -0.0000000000471907, 0.0000000011047196, 0.0000648469184004, -0.0000000005395494, 47.03513606, 7756898.561, 223.054322049, 1542.68943372, 222.2504606093972939, -0.0000000006648789, -18.9199192264182940, 222.2504606093972939, -0.0000000006648789, -18.9199192264182940, 223.0543193352903302, -0.0000000006173026, -0.0007825540215869, 7629.0001238547, 7629.0001238547, 0.0000000000053565, -4.8655838841683687, 360.0000030593910196, -4.8657907201412, -1.7078689903993e-10, 0.00019332947674776, -1.1365613170714e-16, 20933279.0000046864151955, -0.0000000000415248, 70.6338211243680973, 0.0013230562905638, 7629.0001238547, 20925650, 0.154048185, 0.0539168646, 0.154048185, 0, 0, 0, 0, 0, 0, -1.4844763e-12, -0, -1.4844763e-12, -1.4844763e-12, -1.4844763e-12, -5.19566704e-13, -1.4844763e-12, 15, 0.5, 1, 0, 117.5737174, -7.944909513e-05, -1.784354835e-09, 0.6634132059
0.32499987, 0, 0, 0, 0.5, 0, 0, 3.089208813, -3.654877069e-11, 15, 0.0000000001107744, 0.0000109287231571, -0.0000000000576083, 0.0000000012918859, 0.0000689098416490, -0.0000000006255286, 47.03513829, 7756898.745, 223.054327391, 1542.6894345, 222.2504654865638827, -0.0000000007871301, -18.9199249198792359, 222.2504654865638827, -0.0000000007871301, -18.9199249198792359, 223.0543247320884177, -0.0000000007356689, -0.0008279552825350, 7629.0001376048, 7629.0001376048, 0.0000000000070874, -4.8655735365670623, 360.0000030593901101, -4.8657920710807, -2.0218944342086e-10, 0.00020350471514175, -1.4447810371844e-16, 20933279.0000055618584156, -0.0000000000527857, 74.3513916713715588, 0.0013926908321724, 7629.0001376048, 20925650, 0.154048185, 0.0539168646, 0.154048185, 0, 0, 0, 0, 0, 0, -1.82256109e-12, -0, -1.82256109e-12, -1.82256109e-12, -1.82256109e-12, -6.37896381e-13, -1.82256109e-12, 15, 0.5, 1, 0, 117.5737199, -8.264664487e-05, -1.985021336e-09, 0.6634132059
0.34166653, 0, 0, 0, 0.5, 0, 0, 3.089208813, -4.437589265e-11, 15, 0.0000000001356841, 0.0000121450724720, -0.0000000000695861, 0.0000000014956244, 0.0000729813479171, -0.0000000007191458, 47.03514048, 7756898.924, 223.054332625, 1542.68943526, 222.2504702376970158, -0.0000000009226749, -18.9199308064147651, 222.2504702376970158, -0.0000000009226749, -18.9199308064147651, 223.0543300198870043, -0.0000000008676086, -0.0008736385423376, 7629.0001521111, 7629.0001521111, 0.0000000000092201, -4.8655631692589214, 360.0000030593890870, -4.8657934741823, -2.3700672467061e-10, 0.00021367995377943, -1.8100746719548e-16, 20933279.0000065378844738, -0.0000000000661319, 78.0689623074165127, 0.0014623253737811, 7629.0001521111, 20925650, 0.154048185, 0.0539168646, 0.154048185, 0, 0, 0, 0, 0, 0, -2.21287265e-12, -0, -2.21287265e-12, -2.21287265e-12, -2.21287265e-12, -7.74505429e-13, -2.21287265e-12, 15, 0.5, 1, 0, 117.5737224, -8.570884942e-05, -2.194083812e-09, 0.6634132059
0.35833319, 0, 0, 0, 0.5, 0, 0, 3.089208813, -5.33402567e-11, 15, 0.0000000001642673, 0.0000134293362486, -0.0000000000832534, 0.0000000017160318, 0.0000770558777321, -0.0000000008205305, 47.03514262, 7756899.099, 223.054337748, 1542.68943601, 222.2504748631137375, -0.0000000010720479, -18.9199368773155854, 222.2504748631137375, -0.0000000010720479, -18.9199368773155854, 223.0543351982610716, -0.0000000010137486, -0.0009195994230708, 7629.0001673847, 7629.0001673847, 0.0000000000118160, -4.8655527811121706, 360.0000030593877796, -4.8657949272101, -2.7537604942933e-10, 0.00022385519265583, -2.238777496473e-16, 20933279.0000076144933701, -0.0000000000817948, 81.7865330306829605, 0.0015319599153897, 7629.0001673847, 20925650, 0.154048185, 0.0539168646, 0.154048185, 0, 0, 0, 0, 0, 0, -2.65989456e-12, -0, -2.65989456e-12, -2.65989456e-12, -2.65989456e-12, -9.30963095e-13, -2.65989456e-12, 15, 0.5, 1, 0, 117.5737248, -8.86380862e-05, -2.4112277e-09, 0.6634132059
0.37499985, 0, 0, 0, 0.5, 0, 0, 3.089208813, -6.353316594e-11, 15, 0.0000000001968023, 0.0000147814759871, -0.0000000000987417, 0.0000000019531511, 0.0000811281119731, -0.0000000009297921, 47.03514471, 7756899.27, 223.054342762, 1542.68943675, 222.2504793631215136, -0.0000000012357635, -18.9199431240279132, 222.2504793631215136, -0.0000000012357635, -18.9199431240279132, 223.0543402667894952, -0.0000000011747024, -0.0009658337042957, 7629.0001834296, 7629.0001834333, 0.0000000000149409, -4.8655423709949597, 360.0000030593862448, -4.8657964279681, -3.1742952097503e-10, 0.00023403043176594, -2.7375076795146e-16, 20933279.0000088028609753, -0.0000000001000161, 85.5041038393437987, 0.0016015944569983, 7629.0001834333, 20925650, 0.154048185, 0.0539168646, 0.154048185, 0, 0, 0, 0, 0, 0, -3.16817977e-12, -0, -3.16817977e-12, -3.16817977e-12, -3.16817977e-12, -1.10886292e-12, -3.16817977e-12, 15, 0.5, 1, 0, 117.5737272, -9.143677765e-05, -2.636143176e-09, 0.6634132059
0.39166651, 0, 0, 0, 0.5, 0, 0, 3.089208813, -7.504708351e-11, 15, 0.0000000002335679, 0.0000162013684787, -0.0000000001161837, 0.0000000022069754, 0.0000851929681443, -0.0000000010470206, 47.03514675, 7756899.438, 223.054347665, 1542.68943746, 222.2504837380176639, -0.0000000014143159, -18.9199495381563061, 222.2504837380176639, -0.0000000014143159, -18.9199495381563061, 223.0543452250546466, -0.0000000013510701, -0.0010123373202724, 7629.0002002418, 7629.0002002381, 0.0000000000186658, -4.8655319377767912, 360.0000030593844826, -4.865797974301, -3.6329411928064e-10, 0.00024420567110475, -3.3131601909774e-16, 20933279.0000101029872894, -0.0000000001210478, 89.2216747315649457, 0.0016712289986069, 7629.0002002381, 20925650, 0.154048185, 0.0539168646, 0.154048185, 0, 0, 0, 0, 0, 0, -3.74233911e-12, -0, -3.74233911e-12, -3.74233911e-12, -3.74233911e-12, -1.30981869e-12, -3.74233911e-12, 15, 0.5, 1, 0, 117.5737295, -9.410739015e-05, -2.868525284e-09, 0.6634132059
0.40833317, 0, 0, 0, 0.5, 0, 0, 3.089208813, -8.797541195e-11, 15, 0.0000000002748414, 0.0000176888097199, -0.0000000001357134, 0.0000000024774520, 0.0000892455988978, -0.0000000011722872, 47.03514875, 7756899.601, 223.054352457, 1542.68943816, 222.2504879880890485, -0.0000000016081799, -18.9199561114663233, 222.2504879880890485, -0.0000000016081799, -18.9199561114663233, 223.0543500726421939, -0.0000000015434394, -0.0010591063572427, 7629.0002178326, 7629.0002178326, 0.0000000000230664, -4.8655214803299112, 360.0000030593823794, -4.865799564095, -4.1309178319491e-10, 0.0002543809106672, -3.9729008996348e-16, 20933279.0000115185976028, -0.0000000001451518, 92.9392457055054138, 0.0017408635402156, 7629.0002178326, 20925650, 0.154048185, 0.0539168646, 0.154048185, 0, 0, 0, 0, 0, 0, -4.38703025e-12, -0, -4.38703025e-12, -4.38703025e-12, -4.38703025e-12, -1.53546059e-12, -4.38703025e-12, 15, 0.5, 1, 0, 117.5737317, -9.665242939e-05, -3.108074059e-09, 0.6634132059
0.42499983, 0, 0, 0, 0.5, 0, 0, 3.089208813, -1.024122833e-10, 15, 0.0000000003208990, 0.0000192435186497, -0.0000000001574657, 0.0000000027644858, 0.0000932813800234, -0.0000000013056461, 47.0351507, 7756899.76, 223.054357138, 1542.68943885, 222.2504921136114717, -0.0000000018178108, -18.9199628358866576, 222.2504921136114717, -0.0000000018178108, -18.9199628358866576, 223.0543548091407047, -0.0000000017523852, -0.0011061370506873, 7629.0002362095, 7629.0002362095, 0.0000000000282231, -4.8655109975306159, 360.0000030593799352, -4.8658011952783, -4.6693949457941e-10, 0.00026455615044826, -4.7241608576623e-16, 20933279.0000130571424961, -0.0000000001725994, 96.6568167593173371, 0.0018104980818242, 7629.0002362095, 20925650, 0.154048185, 0.0539168646, 0.154048185, 0, 0, 0, 0, 0, 0, -5.10694721e-12, -0, -5.10694721e-12, -5.10694721e-12, -5.10694721e-12, -1.78743152e-12, -5.10694721e-12, 15, 0.5, 1, 0, 117.5737339, -9.907442993e-05, -3.35449464e-09, 0.6634132059
0.44166649, 0, 0, 0, 0.5, 0, 0, 3.089208813, -1.184523598e-10, 15, 0.0000000003720143, 0.0000208651408876, -0.0000000001815761, 0.0000000030679434, 0.0000972959115898, -0.0000000014471345, 47.0351526, 7756899.916, 223.054361708, 1542.68943952, 222.2504961148493976, -0.0000000020436452, -18.9199697035111285, 222.2504961148493976, -0.0000000020436452, -18.9199697035111285, 223.0543594341416735, -0.0000000019784710, -0.0011534257823129, 7629.0002553686, 7629.0002553649, 0.0000000000342212, -4.8655004882605146, 360.0000030593770930, -4.8658028658217, -5.249493641801e-10, 0.00027473139044283, -5.5746307684123e-16, 20933279.0000147223472595, -0.0000000002036717, 100.3743878911459859, 0.0018801326234328, 7629.0002553649, 20925650, 0.154048185, 0.0539168646, 0.154048185, 0, 0, 0, 0, 0, 0, -5.90681048e-12, -0, -5.90681048e-12, -5.90681048e-12, -5.90681048e-12, -2.06738367e-12, -5.90681048e-12, 15, 0.5, 1, 0, 117.573736, -0.0001013759558, -3.607497366e-09, 0.6634132059
0.45833315, 0, 0, 0, 0.5, 0, 0, 3.089208813, -1.361906446e-10, 15, 0.0000000004284584, 0.0000225532523827, -0.0000000002081805, 0.0000000033876556, 0.0001012850141072, -0.0000000015967738, 47.03515445, 7756900.067, 223.054366165, 1542.68944017, 222.2504999920556088, -0.0000000022861008, -18.9199767066004085, 222.2504999920556088, -0.0000000022861008, -18.9199767066004085, 223.0543639472392101, -0.0000000022222484, -0.0012009690772139, 7629.0002753139, 7629.0002753176, 0.0000000000411508, -4.8654899514077075, 360.0000030593738529, -4.8658045737387, -5.872287190454e-10, 0.00028490663064582, -6.532255633806e-16, 20933279.0000165142118931, -0.0000000002386590, 104.0919590991298804, 0.0019497671650414, 7629.0002753176, 20925650, 0.154048185, 0.0539168646, 0.154048185, 0, 0, 0, 0, 0, 0, -6.79135754e-12, -0, -6.79135754e-12, -6.79135754e-12, -6.79135754e-12, -2.37697514e-12, -6.79135754e-12, 15, 0.5, 1, 0, 117.573738, -0.000103559598, -3.866797865e-09, 0.6634132059
0.47499981, 0, 0, 0, 0.5, 0, 0, 3.089208813, -1.557223025e-10, 15, 0.0000000004904988, 0.0000243073628905, -0.0000000002374148, 0.0000000037234209, 0.0001052447156091, -0.0000000017545706, 47.03515625, 7756900.214, 223.05437051, 1542.68944081, 222.2505037454708088, -0.0000000025455773, -18.9199838375833771, 222.2505037454708088, -0.0000000025455773, -18.9199838375833771, 223.0543683480295840, -0.0000000024842580, -0.0012487636009482, 7629.0002960563, 7629.0002960563, 0.0000000000491065, -4.8654793858679284, 360.0000030593701581, -4.8658063170865, -6.5388019141775e-10, 0.00029508187105212, -7.6052295776878e-16, 20933279.0000184401869774, -0.0000000002778606, 107.8095303814007764, 0.00201940170665, 7629.0002960563, 20925650, 0.154048185, 0.0539168646, 0.154048185, 0, 0, 0, 0, 0, 0, -7.76533393e-12, -0, -7.76533393e-12, -7.76533393e-12, -7.76533393e-12, -2.71786687e-12, -7.76533393e-12, 15, 0.5, 1, 0, 117.5737399, -0.0001056279659, -4.13211714e-09, 0.6634132059
0.49166647, 0, 0, 0, 0.5, 0, 0, 3.089208813, -1.771424901e-10, 15, 0.0000000005583992, 0.0000261269195447, -0.0000000002694150, 0.0000000040750087, 0.0001091712569815, -0.0000000019205173, 47.035158, 7756900.357, 223.054374742, 1542.68944142, 222.2505073753233091, -0.0000000028224561, -18.9199910890583887, 222.2505073753233091, -0.0000000028224561, -18.9199910890583887, 223.0543726361114523, -0.0000000027650294, -0.0012968061565672, 7629.0003175996, 7629.0003175996, 0.0000000000581876, -4.8654687905456147, 360.0000030593658948, -4.8658080939655, -7.2500180884208e-10, 0.00030525711165659, -8.8019908415867e-16, 20933279.0000205077230930, -0.0000000003215848, 111.5271017360837220, 0.0020890362482587, 7629.0003175996, 20925650, 0.154048185, 0.0539168646, 0.154048185, 0, 0, 0, 0, 0, 0, -8.83348478e-12, -0, -8.83348478e-12, -8.83348478e-12, -8.83348478e-12, -3.09171967e-12, -8.83348478e-12, 15, 0.5, 1, 0, 117.5737418, -0.0001075836832, -4.403181634e-09, 0.6634132059
0.50833313, 0, 0, 0, 0.5, 0, 0, 3.089208813, -2.005461956e-10, 15, 0.0000000006324191, 0.0000280113101523, -0.0000000003043164, 0.0000000044421613, 0.0001130610795219, -0.0000000020945929, 47.03515971, 7756900.496, 223.05437886, 1542.68944203, 222.2505108818288591, -0.0000000031171015, -18.9199984537940260, 222.2505108818288591, -0.0000000031171015, -18.9199984537940260, 223.0543768110852909, -0.0000000030650822, -0.0013450936815147, 7629.0003399476, 7629.0003399476, 0.0000000000684980, -4.8654581643549228, 360.0000030593611200, -4.8658099025202, -8.0068708539238e-10, 0.00031543235245409, -1.0131216949222e-15, 20933279.0000227168202400, -0.0000000003701487, 115.2446731612971007, 0.0021586707898673, 7629.0003399476, 20925650, 0.154048185, 0.0539168646, 0.154048185, 0, 0, 0, 0, 0, 0, -1.00005468e-11, -0, -1.00005468e-11, -1.00005468e-11, -1.00005468e-11, -3.50019139e-12, -1.00005468e-11, 15, 0.5, 1, 0, 117.5737436, -0.0001094293878, -4.679723293e-09, 0.6634132059
0.52499979, 0, 0, 0, 0.5, 0, 0, 3.089208813, -2.260280867e-10, 15, 0.0000000007128133, 0.0000299598665146, -0.0000000003422540, 0.0000000048245973, 0.0001169108223847, -0.0000000022767637, 47.03516137, 7756900.631, 223.054382865, 1542.68944262, 222.2505142651902190, -0.0000000034298602, -18.9200059247298249, 222.2505142651902190, -0.0000000034298602, -18.9200059247298249, 223.0543808725534234, -0.0000000033849256, -0.0013936232446241, 7629.0003630966, 7629.0003630966, 0.0000000000801461, -4.8654475062206881, 360.0000030593557199, -4.8658117409392, -8.8102511378106e-10, 0.00032560759343944, -1.1601820036111e-15, 20933279.0000250712037086, -0.0000000004238779, 118.9622446551526593, 0.0022283053314759, 7629.0003630966, 20925650, 0.154048185, 0.0539168646, 0.154048185, 0, 0, 0, 0, 0, 0, -1.12712408e-11, -0, -1.12712408e-11, -1.12712408e-11, -1.12712408e-11, -3.94493428e-12, -1.12712408e-11, 15, 0.5, 1, 0, 117.5737454, -0.0001111677269, -4.961479614e-09, 0.6634132059
0.54166645, 0, 0, 0, 0.5, 0, 0, 3.089208813, -2.536823688e-10, 15, 0.0000000007998314, 0.0000319718676970, -0.0000000003833621, 0.0000000052220135, 0.0001207173212498, -0.0000000024669844, 47.03516297, 7756900.761, 223.054386756, 1542.68944319, 222.2505175255971892, -0.0000000037610622, -18.9200134949768710, 222.2505175255971892, -0.0000000037610622, -18.9200134949768710, 223.0543848201196226, -0.0000000037250591, -0.0014423920430957, 7629.0003870614, 7629.0003870614, 0.0000000000932445, -4.8654368150793372, 360.0000030593496945, -4.8658136074552, -9.6610065827235e-10, 0.00033578283460745, -1.3222942340564e-15, 20933279.0000275783240795, -0.0000000004831063, 122.6798162157555225, 0.0022979398730845, 7629.0003870614, 20925650, 0.154048185, 0.0539168646, 0.154048185, 0, 0, 0, 0, 0, 0, -1.26502644e-11, -0, -1.26502644e-11, -1.26502644e-11, -1.26502644e-11, -4.42759255e-12, -1.26502644e-11, 15, 0.5, 1, 0, 117.5737471, -0.0001128013548, -5.248193691e-09, 0.6634132059
0.55833311, 0, 0, 0, 0.5, 0, 0, 3.089208813, -2.836026497e-10, 15, 0.0000000008937177, 0.0000340465431134, -0.0000000004277737, 0.0000000056340873, 0.0001244775961717, -0.0000000026651982, 47.03516453, 7756900.888, 223.054390532, 1542.68944374, 222.2505206632262116, -0.0000000041110210, -18.9200211578178852, 222.2505206632262116, -0.0000000041110210, -18.9200211578178852, 223.0543886533892248, -0.0000000040859729, -0.0014913973995014, 7629.0004118383, 7629.0004118383, 0.0000000001079104, -4.8654260898797261, 360.0000030593429301, -4.865815500345, -1.0559942483129e-09, 0.00034595807595293, -1.5003951852417e-15, 20933279.0000302381813526, -0.0000000005481763, 126.3973878412042353, 0.0023675744146932, 7629.0004118383, 20925650, 0.154048185, 0.0539168646, 0.154048185, 0, 0, 0, 0, 0, 0, -1.41422856e-11, -0, -1.41422856e-11, -1.41422856e-11, -1.41422856e-11, -4.94979996e-12, -1.41422856e-11, 15, 0.5, 1, 0, 117.5737487, -0.0001143329234, -5.539614255e-09, 0.6634132059
0.57499977, 0, 0, 0, 0.5, 0, 0, 3.089208813, -3.158818138e-10, 15, 0.0000000009947109, 0.0000361830755915, -0.0000000004756211, 0.0000000060604791, 0.0001281888525308, -0.0000000028713381, 47.03516604, 7756901.01, 223.054394194, 1542.68944428, 222.2505236782403131, -0.0000000044800340, -18.9200289067072411, 222.2505236782403131, -0.0000000044800340, -18.9200289067072411, 223.0543923719687882, -0.0000000044681484, -0.0015406367585342, 7629.0004374348, 7629.000437431, 0.0000000001242649, -4.8654153295839624, 360.0000030593353131, -4.8658174179298, -1.1507822726081e-09, 0.00035613331747064, -1.6954438115962e-15, 20933279.0000330582261086, -0.0000000006194383, 130.1149595295907488, 0.0024372089563018, 7629.000437431, 20925650, 0.154048185, 0.0539168646, 0.154048185, 0, 0, 0, 0, 0, 0, -1.57519361e-11, -0, -1.57519361e-11, -1.57519361e-11, -1.57519361e-11, -5.51317765e-12, -1.57519361e-11, 15, 0.5, 1, 0, 117.5737502, -0.0001157650883, -5.835495689e-09, 0.6634132059
0.59166643, 0, 0, 0, 0.5, 0, 0, 3.089208813, -3.506119039e-10, 15, 0.0000000011030437, 0.0000383806043709, -0.0000000005270351, 0.0000000065008339, 0.0001318484740513, -0.0000000030853271, 47.03516749, 7756901.129, 223.05439774, 1542.6894448, 222.2505265707889066, -0.0000000048683829, -18.9200367352708945, 222.2505265707889066, -0.0000000048683829, -18.9200367352708945, 223.0543959754658658, -0.0000000048720578, -0.0015901076840557, 7629.0004638545, 7629.0004638582, 0.0000000001424335, -4.8654045331681370, 360.0000030593269571, -4.865819358575, -1.2505370735489e-09, 0.00036630855915536, -1.9084208183315e-15, 20933279.0000360421836376, -0.0000000006972504, 133.8325312790005341, 0.0025068434979104, 7629.0004638582, 20925650, 0.154048185, 0.0539168646, 0.154048185, 0, 0, 0, 0, 0, 0, -1.74838059e-11, -0, -1.74838059e-11, -1.74838059e-11, -1.74838059e-11, -6.11933207e-12, -1.74838059e-11, 15, 0.5, 1, 0, 117.5737517, -0.0001171004983, -6.135598055e-09, 0.6634132059
0.60833309, 0, 0, 0, 0.5, 0, 0, 3.089208813, -3.8788401e-10, 15, 0.0000000012189428, 0.0000406382279589, -0.0000000005821450, 0.0000000069547837, 0.0001354540168292, -0.0000000033070791, 47.0351689, 7756901.243, 223.05440117, 1542.6894453, 222.2505293410077627, -0.0000000052763338, -18.9200446373059208, 222.2505293410077627, -0.0000000052763338, -18.9200446373059208, 223.0543994634890339, -0.0000000052981654, -0.0016398078559767, 7629.0004911013, 7629.0004911013, 0.0000000001625455, -4.8653936996230396, 360.0000030593176916, -4.86582132069, -1.3553270419489e-09, 0.0003764838010018, -2.1403282714572e-15, 20933279.0000391900539398, -0.0000000007819789, 137.5501030875124400, 0.002576478039519, 7629.0004911013, 20925650, 0.154048185, 0.0539168646, 0.154048185, 0, 0, 0, 0, 0, 0, -1.93424372e-11, -0, -1.93424372e-11, -1.93424372e-11, -1.93424372e-11, -6.76985303e-12, -1.93424372e-11, 15, 0.5, 1, 0, 117.5737532, -0.0001183417963, -6.4396871e-09, 0.6634132059
0.62499975, 0, 0, 0, 0.5, 0, 0, 3.089208813, -4.277881663e-10, 15, 0.0000000013426283, 0.0000429550069667, -0.0000000006410787, 0.0000000074219488, 0.0001390032063787, -0.0000000035364994, 47.03517026, 7756901.353, 223.054404485, 1542.68944579, 222.2505319890188105, -0.0000000057041381, -18.9200526067800574, 222.2505319890188105, -0.0000000057041381, -18.9200526067800574, 223.0544028356475792, -0.0000000057469270, -0.0016897350671528, 7629.0005191788, 7629.0005191788, 0.0000000001847343, -4.8653828279548090, 360.0000030593074598, -4.8658233027282, -1.4652167118512e-09, 0.00038665904300471, -2.3921892221164e-15, 20933279.0000425092875957, -0.0000000008739974, 141.2676749531988776, 0.0026461125811276, 7629.0005191788, 20925650, 0.154048185, 0.0539168646, 0.154048185, 0, 0, 0, 0, 0, 0, -2.13323198e-11, -0, -2.13323198e-11, -2.13323198e-11, -2.13323198e-11, -7.46631194e-12, -2.13323198e-11, 15, 0.5, 1, 0, 117.5737545, -0.0001194916156, -6.747534265e-09, 0.6634132059
0.64166641, 0, 0, 0, 0.5, 0, 0, 3.089208813, -4.704132547e-10, 15, 0.0000000014743141, 0.0000453299668405, -0.0000000007039623, 0.0000000079019400, 0.0001424939327084, -0.0000000037734853, 47.03517157, 7756901.458, 223.054407683, 1542.68944626, 222.2505345149301377, -0.0000000061520323, -18.9200606378309537, 222.2505345149301377, -0.0000000061520323, -18.9200606378309537, 223.0544060915516980, -0.0000000062187910, -0.0017398872203529, 7629.0005480908, 7629.0005480908, 0.0000000002091369, -4.8653719171855379, 360.0000030592962617, -4.8658253031869, -1.5802668553587e-09, 0.00039683428515879, -2.6650473448754e-15, 20933279.0000460036098957, -0.0000000009736874, 144.9852468741256928, 0.0027157471227363, 7629.0005480908, 20925650, 0.154048185, 0.0539168646, 0.154048185, 0, 0, 0, 0, 0, 0, -2.34578859e-11, -0, -2.34578859e-11, -2.34578859e-11, -2.34578859e-11, -8.21026007e-12, -2.34578859e-11, 15, 0.5, 1, 0, 117.5737558, -0.0001205525775, -7.058916677e-09, 0.6634132059
0.65833307, 0, 0, 0, 0.5, 0, 0, 3.089208813, -5.158469155e-10, 15, 0.0000000016142073, 0.0000477621004784, -0.0000000007709200, 0.0000000083943596, 0.0001459242428187, -0.0000000040179270, 47.03517282, 7756901.56, 223.054410764, 1542.68944671, 222.2505369188359339, -0.0000000066202387, -18.9200687247652688, 222.2505369188359339, -0.0000000066202387, -18.9200687247652688, 223.0544092308117285, -0.0000000067141980, -0.0017902623251516, 7629.0005778372, 7629.0005778372, 0.0000000002358941, -4.8653609663538502, 360.0000030592839266, -4.8658273206068, -1.7005345773621e-09, 0.00040700952745872, -2.9599665896085e-15, 20933279.0000496730208397, -0.0000000010814375, 148.7028188483523081, 0.0027853816643449, 7629.0005778372, 20925650, 0.154048185, 0.0539168646, 0.154048185, 0, 0, 0, 0, 0, 0, -2.57235058e-11, -0, -2.57235058e-11, -2.57235058e-11, -2.57235058e-11, -9.00322704e-12, -2.57235058e-11, 15, 0.5, 1, 0, 117.573757, -0.0001215272884, -7.37361714e-09, 0.6634132059
0.67499973, 0, 0, 0, 0.5, 0, 0, 3.089208813, -5.641754642e-10, 15, 0.0000000017625083, 0.0000502503708326, -0.0000000008420742, 0.0000000088988031, 0.0001492923396437, -0.0000000042697074, 47.03517403, 7756901.657, 223.054413728, 1542.68944715, 222.2505392008164051, -0.0000000071089657, -18.9200768620576980, 222.2505392008164051, -0.0000000071089657, -18.9200768620576980, 223.0544122530388336, -0.0000000072335817, -0.0018408584948695, 7629.000608433, 7629.000608433, 0.0000000002651503, -4.8653499745154036, 360.0000030592704547, -4.865829353572, -1.8260734100255e-09, 0.00041718476989917, -3.2780308466185e-15, 20933279.0000535249710083, -0.0000000011976438, 152.4203908739315807, 0.0028550162059535, 7629.000608433, 20925650, 0.154048185, 0.0539168646, 0.154048185, 0, 0, 0, 0, 0, 0, -2.81334838e-11, -0, -2.81334838e-11, -2.81334838e-11, -2.81334838e-11, -9.84671932e-12, -2.81334838e-11, 15, 0.5, 1, 0, 117.5737582, -0.0001224183389, -7.69142412e-09, 0.6634132059
0.69166639, 0, 0, 0, 0.5, 0, 0, 3.089208813, -6.154838149e-10, 15, 0.0000000019194107, 0.0000527937133854, -0.0000000009175451, 0.0000000094148609, 0.0001525965737564, -0.0000000045287035, 47.03517519, 7756901.75, 223.054416574, 1542.68944757, 222.2505413609378309, -0.0000000076184082, -18.9200850443497366, 222.2505413609378309, -0.0000000076184082, -18.9200850443497366, 223.0544151578441756, -0.0000000077773685, -0.0018916739435824, 7629.0006398633, 7629.0006398633, 0.0000000002970532, -4.8653389407433805, 360.0000030592557323, -4.8658314007096, -1.9569334069643e-09, 0.0004273600124748, -3.6203436246353e-15, 20933279.0000575594604015, -0.0000000013227093, 156.1379629489099727, 0.0029246507475621, 7629.0006398633, 20925650, 0.154048185, 0.0539168646, 0.154048185, 0, 0, 0, 0, 0, 0, -3.06920542e-11, -0, -3.06920542e-11, -3.06920542e-11, -3.06920542e-11, -1.0742219e-11, -3.06920542e-11, 15, 0.5, 1, 0, 117.5737593, -0.0001232282964, -8.012131723e-09, 0.6634132059
0.70833305, 0, 0, 0, 0.5, 0, 0, 3.089208813, -6.698554104e-10, 15, 0.0000000020851012, 0.0000553910385368, -0.0000000009974508, 0.0000000099421189, 0.0001558354420863, -0.0000000047947862, 47.03517629, 7756901.839, 223.054419303, 1542.68944797, 222.2505433992525923, -0.0000000081487479, -18.9200932664483794, 222.2505433992525923, -0.0000000081487479, -18.9200932664483794, 223.0544179448393436, -0.0000000083459785, -0.0019427069829625, 7629.0006721467, 7629.0006721504, 0.0000000003317540, -4.8653278641289202, 360.0000030592397593, -4.8658334606894, -2.093161236976e-09, 0.00043753525518023, -3.9880277413377e-15, 20933279.0000617839396000, -0.0000000014570444, 159.8555350713274095, 0.0029942852891708, 7629.0006721504, 20925650, 0.154048185, 0.0539168646, 0.154048185, 0, 0, 0, 0, 0, 0, -3.34033781e-11, -0, -3.34033781e-11, -3.34033781e-11, -3.34033781e-11, -1.16911823e-11, -3.34033781e-11, 15, 0.5, 1, 0, 117.5737603, -0.0001239597147, -8.33553966e-09, 0.6634132059
0.72499971, 0, 0, 0, 0.5, 0, 0, 3.089208813, -7.273721569e-10, 15, 0.0000000022597594, 0.0000580412339670, -0.0000000010819073, 0.0000000104801604, 0.0001590075787813, -0.0000000050678214, 47.03517734, 7756901.923, 223.054421913, 1542.68944836, 222.2505453157990587, -0.0000000087001536, -18.9201015233247176, 222.2505453157990587, -0.0000000087001536, -18.9201015233247176, 223.0544206136358980, -0.0000000089398254, -0.0019939560194757, 7629.0007052794, 7629.0007052794, 0.0000000003694071, -4.8653167437815181, 360.0000030592223652, -4.8658355322233, -2.2348002772659e-09, 0.00044771049801009, -4.3822250260447e-15, 20933279.0000661984086037, -0.0000000016010662, 163.5731072392173644, 0.0030639198307794, 7629.0007052794, 20925650, 0.154048185, 0.0539168646, 0.154048185, 0, 0, 0, 0, 0, 0, -3.62715398e-11, -0, -3.62715398e-11, -3.62715398e-11, -3.62715398e-11, -1.26950389e-11, -3.62715398e-11, 15, 0.5, 1, 0, 117.5737613, -0.0001246151156, -8.661453224e-09, 0.6634132059
0.74166637, 0, 0, 0, 0.5, 0, 0, 3.089208813, -7.881143654e-10, 15, 0.0000000024435582, 0.0000607431668939, -0.0000000011710281, 0.0000000110285667, 0.0001621117569759, -0.0000000053476701, 47.03517835, 7756902.003, 223.054424404, 1542.68944873, 222.2505471106017865, -0.0000000092727817, -18.9201098101123115, 222.2505471106017865, -0.0000000092727817, -18.9201098101123115, 223.0544231638452857, -0.0000000095593164, -0.0020454195512016, 7629.0007392727, 7629.0007392727, 0.0000000004101699, -4.8653055788293891, 360.0000030592034932, -4.8658376140654, -2.3818907060836e-09, 0.00045788574095898, -4.8040960342274e-15, 20933279.0000708103179932, -0.0000000017551988, 167.2906794506068309, 0.003133554372388, 7629.0007392727, 20925650, 0.154048185, 0.0539168646, 0.154048185, 0, 0, 0, 0, 0, 0, -3.93005441e-11, -0, -3.93005441e-11, -3.93005441e-11, -3.93005441e-11, -1.37551904e-11, -3.93005441e-11, 15, 0.5, 1, 0, 117.5737621, -0.0001251970015, -8.989683243e-09, 0.6634132059
0.75833303, 0, 0, 0, 0.5, 0, 0, 3.089208813, -8.521606983e-10, 15, 0.0000000026366633, 0.0000634956862121, -0.0000000012649243, 0.0000000115869184, 0.0001651468769674, -0.0000000056341887, 47.0351793, 7756902.079, 223.054426776, 1542.68944908, 222.2505487836714622, -0.0000000098667766, -18.9201181221054568, 222.2505487836714622, -0.0000000098667766, -18.9201181221054568, 223.0544255950790387, -0.0000000102048532, -0.0020970961649986, 7629.0007741228, 7629.0007741228, 0.0000000004542028, -4.8652943684197822, 360.0000030591831433, -4.8658397050111, -2.5344695946207e-09, 0.00046806098402147, -5.2548197734983e-15, 20933279.0000756233930588, -0.0000000019198728, 171.0082517035163505, 0.0032031889139966, 7629.0007741228, 20925650, 0.154048185, 0.0539168646, 0.154048185, 0, 0, 0, 0, 0, 0, -4.24943138e-11, -0, -4.24943138e-11, -4.24943138e-11, -4.24943138e-11, -1.48730098e-11, -4.24943138e-11, 15, 0.5, 1, 0, 117.573763, -0.0001257078442, -9.320046036e-09, 0.6634132059
0.77499969, 0, 0, 0, 0.5, 0, 0, 3.089208813, -9.195881205e-10, 15, 0.0000000028392335, 0.0000662976245847, -0.0000000013637047, 0.0000000121547960, 0.0001681119648738, -0.0000000059272299, 47.0351802, 7756902.15, 223.054429029, 1542.68944941, 222.2505503350050731, -0.0000000104822709, -18.9201264547573871, 222.2505503350050731, -0.0000000104822709, -18.9201264547573871, 223.0544279069484048, -0.0000000108768317, -0.0021489845333882, 7629.0008098371, 7629.0008098334, 0.0000000005016693, -4.8652831117192781, 360.0000030591612585, -4.8658418038965, -2.692570998136e-09, 0.00047823622719213, -5.7355934407283e-15, 20933279.0000806376338005, -0.0000000020955257, 174.7258239959599564, 0.0032728234556052, 7629.0008098334, 20925650, 0.154048185, 0.0539168646, 0.154048185, 0, 0, 0, 0, 0, 0, -4.58566867e-11, -0, -4.58566867e-11, -4.58566867e-11, -4.58566867e-11, -1.60498403e-11, -4.58566867e-11, 15, 0.5, 1, 0, 117.5737637, -0.0001261500906, -9.652363363e-09, 0.6634132059
0.79166635, 0, 0, 0, 0.5, 0, 0, 3.089208813, -9.904718566e-10, 15, 0.0000000030514205, 0.0000691478005710, -0.0000000014674755, 0.0000000127317814, 0.0001710061730277, -0.0000000062266429, 47.03518104, 7756902.217, 223.054431161, 1542.68944973, 222.2505517645859072, -0.0000000111193857, -18.9201348036785646, 222.2505517645859072, -0.0000000111193857, -18.9201348036785646, 223.0544300990645468, -0.0000000115756425, -0.0022010834119151, 7629.0008464232, 7629.0008464232, 0.0000000005527352, -4.8652718079140342, 360.0000030591375548, -4.8658439095988, -2.8562260462048e-09, 0.0004884114704655, -6.2476321699492e-15, 20933279.0000858604907990, -0.0000000022826014, 178.4433963259452298, 0.0033424579972139, 7629.0008464232, 20925650, 0.154048185, 0.0539168646, 0.154048185, 0, 0, 0, 0, 0, 0, -4.9391414e-11, -0, -4.9391414e-11, -4.9391414e-11, -4.9391414e-11, -1.72869949e-11, -4.9391414e-11, 15, 0.5, 1, 0, 117.5737644, -0.0001265261547, -9.986462378e-09, 0.6634132059
0.80833301, 0, 0, 0, 0.5, 0, 0, 3.089208813, -1.064885352e-09, 15, 0.0000000032733692, 0.0000720450204389, -0.0000000015763403, 0.0000000133174582, 0.0001738287647289, -0.0000000065322737, 47.03518184, 7756902.28, 223.054433173, 1542.68945003, 222.2505530723837239, -0.0000000117782312, -18.9201431646343714, 222.2505530723837239, -0.0000000117782312, -18.9201431646343714, 223.0544321710381155, -0.0000000123016708, -0.0022533916360743, 7629.0008838736, 7629.0008838736, 0.0000000006075694, -4.8652604562100077, 360.0000030591121458, -4.8658460210346, -3.025463032142e-09, 0.00049858671383612, -6.7921687907066e-15, 20933279.0000912919640541, -0.0000000024815504, 182.1609686914732720, 0.0034120925388225, 7629.0008838736, 20925650, 0.154048185, 0.0539168646, 0.154048185, 0, 0, 0, 0, 0, 0, -5.31021583e-11, -0, -5.31021583e-11, -5.31021583e-11, -5.31021583e-11, -1.85857554e-11, -5.31021583e-11, 15, 0.5, 1, 0, 117.573765, -0.0001268384189, -1.032217557e-08, 0.6634132059
0.82499967, 0, 0, 0, 0.5, 0, 0, 3.089208813, -1.142900239e-09, 15, 0.0000000035052176, 0.0000749880801419, -0.0000000016904001, 0.0000000139114125, 0.0001765791208198, -0.0000000068439655, 47.03518258, 7756902.338, 223.054435065, 1542.68945031, 222.2505542583548106, -0.0000000124589068, -18.9201515335432795, 222.2505542583548106, -0.0000000124589068, -18.9201515335432795, 223.0544341224794209, -0.0000000130552970, -0.0023059081185117, 7629.0009221956, 7629.0009221956, 0.0000000006663428, -4.8652490558331429, 360.0000030590848041, -4.8658481371603, -3.2003075013036e-09, 0.00050876195729848, -7.3704535965378e-15, 20933279.0000969357788563, -0.0000000026928294, 185.8785410905386470, 0.0034817270804311, 7629.0009221956, 20925650, 0.154048185, 0.0539168646, 0.154048185, 0, 0, 0, 0, 0, 0, -5.69924915e-11, -0, -5.69924915e-11, -5.69924915e-11, -5.69924915e-11, -1.9947372e-11, -5.69924915e-11, 15, 0.5, 1, 0, 117.5737656, -0.0001270892366, -1.065934068e-08, 0.6634132059
0.84166633, 0, 0, 0, 0.5, 0, 0, 3.089208813, -1.224586307e-09, 15, 0.0000000037470967, 0.0000779757671167, -0.0000000018097533, 0.0000000145132339, 0.0001792567294804, -0.0000000071615593, 47.03518327, 7756902.392, 223.054436836, 1542.68945058, 222.2505553224421249, -0.0000000131615016, -18.9201599064746375, 222.2505553224421249, -0.0000000131615016, -18.9201599064746375, 223.0544359529982330, -0.0000000138368968, -0.0023586318463629, 7629.0009613968, 7629.0009613968, 0.0000000007292292, -4.8652376060295257, 360.0000030590555298, -4.8658502569712, -3.3807823384233e-09, 0.00051893720084709, -7.9837541232338e-15, 20933279.0001027956604958, -0.0000000029169016, 189.5961135211294959, 0.0035513616220397, 7629.0009613968, 20925650, 0.154048185, 0.0539168646, 0.154048185, 0, 0, 0, 0, 0, 0, -6.10658939e-11, -0, -6.10658939e-11, -6.10658939e-11, -6.10658939e-11, -2.13730629e-11, -6.10658939e-11, 15, 0.5, 1, 0, 117.5737661, -0.0001272809231, -1.099780068e-08, 0.6634132059
0.85833299, 0, 0, 0, 0.5, 0, 0, 3.089208813, -1.310011478e-09, 15, 0.0000000039991310, 0.0000810068619924, -0.0000000019344956, 0.0000000151225158, 0.0001818611822978, -0.0000000074848941, 47.03518391, 7756902.442, 223.054438485, 1542.68945082, 222.2505562645754935, -0.0000000138860947, -18.9201682796463011, 222.2505562645754935, -0.0000000138860947, -18.9201682796463011, 223.0544376622041796, -0.0000000146468411, -0.0024115618783362, 7629.001001481, 7629.001001481, 0.0000000007964042, -4.8652261060655206, 360.0000030590242659, -4.8658523795008, -3.5669078538395e-09, 0.00052911244447643, -8.6333549365699e-15, 20933279.0001088790595531, -0.0000000031542363, 193.3136859812274224, 0.0036209961636484, 7629.001001481, 20925650, 0.154048185, 0.0539168646, 0.154048185, 0, 0, 0, 0, 0, 0, -6.53257524e-11, -0, -6.53257524e-11, -6.53257524e-11, -6.53257524e-11, -2.28640133e-11, -6.53257524e-11, 15, 0.5, 1, 0, 117.5737665, -0.0001274157586, -1.133740368e-08, 0.6634132059
0.87499965, 0, 0, 0, 0.5, 0, 0, 3.089208813, -1.399241782e-09, 15, 0.0000000042614380, 0.0000840801402471, -0.0000000020647200, 0.0000000157388563, 0.0001843921699496, -0.0000000078138070, 47.03518449, 7756902.487, 223.054440012, 1542.68945105, 222.2505570846716410, -0.0000000146327555, -18.9201766494223413, 222.2505570846716410, -0.0000000146327555, -18.9201766494223413, 223.0544392497059789, -0.0000000154854968, -0.0024646973419600, 7629.001042448, 7629.001042448, 0.0000000008680460, -4.8652145552278574, 360.0000030589907851, -4.8658545038202, -3.7587018684671e-09, 0.00053928768818093, -9.3205574291856e-15, 20933279.0001151859760284, -0.0000000034053089, 197.0312584688074935, 0.003690630705257, 7629.001042448, 20925650, 0.154048185, 0.0539168646, 0.154048185, 0, 0, 0, 0, 0, 0, -6.97753598e-11, -0, -6.97753598e-11, -6.97753598e-11, -6.97753598e-11, -2.44213759e-11, -6.97753598e-11, 15, 0.5, 1, 0, 117.5737669, -0.0001274959878, -1.167800282e-08, 0.6634132059
0.89166631, 0, 0, 0, 0.5, 0, 0, 3.089208813, -1.492341344e-09, 15, 0.0000000045341288, 0.0000871943738670, -0.0000000022005166, 0.0000000163618584, 0.0001868494824588, -0.0000000081481339, 47.03518503, 7756902.528, 223.054441416, 1542.68945126, 222.2505577826344734, -0.0000000154015440, -18.9201850123107675, 222.2505577826344734, -0.0000000154015440, -18.9201850123107675, 223.0544407151117241, -0.0000000163532262, -0.0025180374309635, 7629.0010843016, 7629.0010843016, 0.0000000009443344, -4.8652029528237080, 360.0000030589552011, -4.8658566290378, -3.9561797975694e-09, 0.00054946293195505, -1.0046679626285e-14, 20933279.0001217164099216, -0.0000000036706010, 200.7488309818382675, 0.0037602652468656, 7629.0010843016, 20925650, 0.154048185, 0.0539168646, 0.154048185, 0, 0, 0, 0, 0, 0, -7.44179137e-11, -0, -7.44179137e-11, -7.44179137e-11, -7.44179137e-11, -2.60462698e-11, -7.44179137e-11, 15, 0.5, 1, 0, 117.5737672, -0.0001275238193, -1.201945627e-08, 0.6634132059
0.90833297, 0, 0, 0, 0.5, 0, 0, 3.089208813, -1.589372366e-09, 15, 0.0000000048173079, 0.0000903483328205, -0.0000000023419730, 0.0000000169911308, 0.0001892329987043, -0.0000000084877098, 47.0351855, 7756902.564, 223.054442699, 1542.68945146, 222.2505583583551072, -0.0000000161925111, -18.9201933649610083, 222.2505583583551072, -0.0000000161925111, -18.9201933649610083, 223.0544420580289682, -0.0000000172503881, -0.0025715814026661, 7629.0011270419, 7629.0011270419, 0.0000000010254514, -4.8651912981807337, 360.0000030589171729, -4.8658587542985, -4.1593547333027e-09, 0.00055963817579321, -1.0813055999852e-14, 20933279.0001284778118134, -0.0000000039506002, 204.4664035182817656, 0.0038298997884742, 7629.0011270419, 20925650, 0.154048185, 0.0539168646, 0.154048185, 0, 0, 0, 0, 0, 0, -7.9256516e-11, -0, -7.9256516e-11, -7.9256516e-11, -7.9256516e-11, -2.77397806e-11, -7.9256516e-11, 15, 0.5, 1, 0, 117.5737674, -0.0001275014221, -1.236162708e-08, 0.6634132059
0.92499963, 0, 0, 0, 0.5, 0, 0, 3.089208813, -1.690395117e-09, 15, 0.0000000051110733, 0.0000935407865692, -0.0000000024891739, 0.0000000176262881, 0.0001915426882356, -0.0000000088323685, 47.03518593, 7756902.596, 223.054443858, 1542.68945163, 222.2505588117122386, -0.0000000170056991, -18.9202017041614532, 222.2505588117122386, -0.0000000170056991, -18.9202017041614532, 223.0544432780646957, -0.0000000181773370, -0.0026253285753164, 7629.0011706799, 7629.0011706799, 0.0000000011115807, -4.8651795906471085, 360.0000030588768141, -4.8658608787829, -4.3682375259278e-09, 0.0005698134196898, -1.162103729107e-14, 20933279.0001354739069939, -0.0000000042457999, 208.1839760760935008, 0.0038995343300828, 7629.0011706799, 20925650, 0.154048185, 0.0539168646, 0.154048185, 0, 0, 0, 0, 0, 0, -8.4294172e-11, -0, -8.4294172e-11, -8.4294172e-11, -8.4294172e-11, -2.95029602e-11, -8.4294172e-11, 15, 0.5, 1, 0, 117.5737676, -0.0001274309277, -1.270438315e-08, 0.6634132059
0.94166629, 0, 0, 0, 0.5, 0, 0, 3.089208813, -1.795467929e-09, 15, 0.0000000054155168, 0.0000967705054500, -0.0000000026422012, 0.0000000182669513, 0.0001937786025663, -0.0000000091819437, 47.0351863, 7756902.624, 223.054444893, 1542.68945179, 222.2505591425721434, -0.0000000178411418, -18.9202100268368696, 222.2505591425721434, -0.0000000178411418, -18.9202100268368696, 223.0544443748250387, -0.0000000191344242, -0.0026792783255729, 7629.0012152158, 7629.001215212, 0.0000000012029078, -4.8651678295915088, 360.0000030588338973, -4.8658630017069, -4.5828368636642e-09, 0.00057998866363922, -1.2471990340659e-14, 20933279.0001427084207535, -0.0000000045566995, 211.9015486532223633, 0.0039691688716915, 7629.001215212, 20925650, 0.154048185, 0.0539168646, 0.154048185, 0, 0, 0, 0, 0, 0, -8.95337906e-11, -0, -8.95337906e-11, -8.95337906e-11, -8.95337906e-11, -3.13368267e-11, -8.95337906e-11, 15, 0.5, 1, 0, 117.5737677, -0.0001273144248, -1.304759714e-08, 0.6634132059
0.95833295, 0, 0, 0, 0.5, 0, 0, 3.089208813, -1.904647189e-09, 15, 0.0000000057307240, 0.0001000362620103, -0.0000000028011340, 0.0000000189127480, 0.0001959408748626, -0.0000000095362686, 47.03518662, 7756902.647, 223.054445805, 1542.68945193, 222.2505593507889614, -0.0000000186988649, -18.9202183300457705, 222.2505593507889614, -0.0000000186988649, -18.9202183300457705, 223.0544453479154470, -0.0000000201219973, -0.0027334300858755, 7629.0012606531, 7629.0012606494, 0.0000000012996196, -4.8651560144030919, 360.0000030587884225, -4.8658651223207, -4.8031593511306e-09, 0.00059016390763582, -1.3367297926811e-14, 20933279.0001501813530922, -0.0000000048838043, 215.6191212476107353, 0.0040388034133001, 7629.0012606494, 20925650, 0.154048185, 0.0539168646, 0.154048185, 0, 0, 0, 0, 0, 0, -9.49781836e-11, -0, -9.49781836e-11, -9.49781836e-11, -9.49781836e-11, -3.32423643e-11, -9.49781836e-11, 15, 0.5, 1, 0, 117.5737677, -0.0001271539646, -1.339114635e-08, 0.6634132059
0.97499961, 0, 0, 0, 0.5, 0, 0, 3.089208813, -2.017987337e-09, 15, 0.0000000060567743, 0.0001033368322908, -0.0000000029660489, 0.0000000195633133, 0.0001980297144664, -0.0000000098951767, 47.03518689, 7756902.665, 223.054446593, 1542.68945205, 222.2505594362048953, -0.0000000195788863, -18.9202266109778563, 222.2505594362048953, -0.0000000195788863, -18.9202266109778563, 223.0544461969404324, -0.0000000211404007, -0.0027877833420753, 7629.001306992, 7629.0013069957, 0.0000000014019048, -4.8651441444914454, 360.0000030587401625, -4.8658672399085, -5.0292095863452e-09, 0.00060033915167397, -1.4308358610443e-14, 20933279.0001579001545906, -0.0000000052276252, 219.3366938571943763, 0.0041084379549087, 7629.0013069957, 20925650, 0.154048185, 0.0539168646, 0.154048185, 0, 0, 0, 0, 0, 0, -1.00630066e-10, -0, -1.00630066e-10, -1.00630066e-10, -1.00630066e-10, -3.5220523e-11, -1.00630066e-10, 15, 0.5, 1, 0, 117.5737677, -0.0001269515566, -1.373491266e-08, 0.6634132059
0.99166627, 0, 0, 0, 0.5, 0, 0, 3.089208813, -2.135540872e-09, 15, 0.0000000063937413, 0.0001066709970285, -0.0000000031370193, 0.0000000202182891, 0.0002000454029362, -0.0000000102585014, 47.0351871, 7756902.679, 223.054447255, 1542.68945216, 222.2505593986504095, -0.0000000204812164, -18.9202348669513363, 222.2505593986504095, -0.0000000204812164, -18.9202348669513363, 223.0544469215039101, -0.0000000221899754, -0.0028423376309590, 7629.0013542399, 7629.0013542324, 0.0000000015099531, -4.8651322192865258, 360.0000030586891171, -4.8658693537877, -5.2609902363011e-09, 0.00061051439574798, -1.5296586587472e-14, 20933279.0001658648252487, -0.0000000055886789, 223.0542664799025090, 0.0041780724965173, 7629.0013542324, 20925650, 0.154048185, 0.0539168646, 0.154048185, 0, 0, 0, 0, 0, 0, -1.06492055e-10, -0, -1.06492055e-10, -1.06492055e-10, -1.06492055e-10, -3.72722192e-11, -1.06492055e-10, 15, 0.5, 1, 0, 117.5737676, -0.0001267091698, -1.407878247e-08, 0.6634132059
