Time, Aileron Command (norm), Elevator Command (norm), Rudder Command (norm), Flap Command (norm), Left Aileron Position (deg), Right Aileron Position (deg), Elevator Position (deg), Rudder Position (deg), Flap Position (deg), P (deg/s), Q (deg/s), R (deg/s), P dot (deg/s^2), Q dot (deg/s^2), R dot (deg/s^2), q bar (psf), Reynolds Number, V_{Total} (ft/s), V_{Inertial} (ft/s), UBody, VBody, WBody, Aero V_{X Body} (ft/s), Aero V_{Y Body} (ft/s), Aero V_{Z Body} (ft/s), V_{North} (ft/s), V_{East} (ft/s), V_{Down} (ft/s), Altitude ASL (ft), Altitude AGL (ft), Phi (deg), Theta (deg), Psi (deg), Alpha (deg), Beta (deg), Latitude (deg), Longitude (deg), ECEF X (ft), ECEF Y (ft), ECEF Z (ft), EPA (deg), Distance AGL (ft), Terrain Radius (ft), Pitch Trim Sum, Elevator Control, elevator normalization, Roll-Trim-Sum, Left Aileron Control, Right Aileron Control, left aileron normalization, right aileron normalization, Rudder Command Sum, Yaw Damper Rate, Yaw Damper Beta, Yaw Damper Sum, Yaw Damper Final, Rudder Sum, Rudder Control, rudder normalization, Flaps Control, flap normalization, Gear Control, Speedbrake Control, vc-kts, alphadot-deg sec, betadot-deg sec, throttle-cmd-norm
0.00833333, 0, 0, 0, 0.5, 0, 0, 2.403293552, 0, 15, -0.0000000000000001, 0.0000000119275647, 0.0000000000000002, -0.0000000000000042, 0.0000009842477300, 0.0000000000000158, 40.87064646, 7150344.045, 211.652769873, 1541.16505042, 211.2073913975522430, -0.0000000000000682, -13.7234403098784004, 211.2073913975522430, -0.0000000000000682, -13.7234403098784004, 211.6527699370494702, 0.0000000000000000, -0.0000179444716277, 8776.000000298, 8776.000000298, -0.0000000000000000, -3.7176227450172235, 0.0000000000000000, -3.7176324817495, -1.8465443685948e-14, 9.6545961297165e-06, 1.2364036048822e-28, 20934426.0000000000000000, 0.0000000000000000, 3.5275447552583712, 6.9634541608622e-05, 8776.000000298, 20925650, 0.119843957, 0.041945385, 0.119843957, 0, 0, 0, 0, 0, 0, 0, 0, 0, 0, 0, 0, 0, 15, 0.5, 1, 0, 109.7679073, -7.484686208e-06, -4.431709315e-12, 0.6351242719
0.02499999, 0, 0, 0, 0.5, 0, 0, 2.403293552, -2.49484585e-15, 15, 0.0000000000000122, 0.0000000653458151, -0.0000000000000138, 0.0000000000008386, 0.0000032124327485, -0.0000000000009147, 40.87064638, 7150344.039, 211.652769677, 1541.1650504, 211.2073911617604551, -0.0000000000008529, -13.7234409107697015, 211.2073911617604551, -0.0000000000008529, -13.7234409107697015, 211.6527697861666866, -0.0000000000003207, -0.0000540696964517, 8776.0000011921, 8776.0000011921, 0.0000000000000000, -3.7176130898951723, 360.0000030593939755, -3.7176326482111, -2.3088036005429e-13, 1.9309192254446e-05, -5.2132470107934e-21, 20934426.0000000037252903, -0.0000000000000019, 7.0550895086947003, 0.00013926908321724, 8776.0000011921, 20925650, 0.119843957, 0.041945385, 0.119843957, 0, 0, 0, 0, 0, 0, -1.24409354e-16, -0, -1.24409354e-16, -1.24409354e-16, -1.24409354e-16, -4.3543274e-17, -1.24409354e-16, 15, 0.5, 1, 0, 109.7679072, -1.247439563e-05, -2.259878152e-11, 0.6351242719
0.04166665, 0, 0, 0, 0.5, 0, 0, 2.403293552, -2.363175304e-14, 15, 0.0000000000000768, 0.0000001578595554, -0.0000000000000674, 0.0000000000040731, 0.0000055580032391, -0.0000000000033250, 40.87064627, 7150344.029, 211.652769389, 1541.16505036, 211.2073908152578099, -0.0000000000031317, -13.7234418082929466, 211.2073908152578099, -0.0000000000031317, -13.7234418082929466, 211.6527695442543404, -0.0000000000017596, -0.0000905055271243, 8776.0000026971, 8776.0000026971, 0.0000000000000006, -3.7176034335631929, 360.0000030593939755, -3.7176328967472, -8.477697850973e-13, 2.8963788370217e-05, -4.8392091736753e-20, 20934426.0000000223517418, -0.0000000000000177, 10.5826342588583433, 0.00020890362482587, 8776.0000026971, 20925650, 0.119843957, 0.041945385, 0.119843957, 0, 0, 0, 0, 0, 0, -1.17843399e-15, -0, -1.17843399e-15, -1.17843399e-15, -1.17843399e-15, -4.12451895e-16, -1.17843399e-15, 15, 0.5, 1, 0, 109.767907, -1.733365058e-05, -5.292924864e-11, 0.6351242719
0.05833331, 0, 0, 0, 0.5, 0, 0, 2.403293552, -8.32800021e-14, 15, 0.0000000000002566, 0.0000002913246439, -0.0000000000001933, 0.0000000000110580, 0.0000080146135509, -0.0000000000076914, 40.87064612, 7150344.015, 211.65276901, 1541.16505032, 211.2073903581174932, -0.0000000000076442, -13.7234429944113518, 211.2073903581174932, -0.0000000000076442, -13.7234429944113518, 211.6527692108660972, -0.0000000000050676, -0.0001272462179411, 8776.0000048093, 8776.0000048093, 0.0000000000000031, -3.7175937753537256, 360.0000030593939755, -3.7176332251854, -2.0693212578535e-12, 3.8618384472867e-05, -1.977182764011e-19, 20934426.0000000558793545, -0.0000000000000722, 14.1101790042285451, 0.00027853816643449, 8776.0000048093, 20925650, 0.119843957, 0.041945385, 0.119843957, 0, 0, 0, 0, 0, 0, -4.15288636e-15, -0, -4.15288636e-15, -4.15288636e-15, -4.15288636e-15, -1.45351023e-15, -4.15288636e-15, 15, 0.5, 1, 0, 109.7679067, -2.206269711e-05, -9.512104798e-11, 0.6351242719
0.07499997, 0, 0, 0, 0.5, 0, 0, 2.403293552, -2.069293709e-13, 15, 0.0000000000006347, 0.0000004674675941, -0.0000000000004316, 0.0000000000230355, 0.0000105748282192, -0.0000000000144608, 40.87064593, 7150343.999, 211.652768538, 1541.16505026, 211.2073897904189721, -0.0000000000151114, -13.7234444611079720, 211.2073897904189721, -0.0000000000151114, -13.7234444611079720, 211.6527687855575550, -0.0000000000109789, -0.0001642862746962, 8776.0000075363, 8776.0000075363, 0.0000000000000101, -3.7175841145694806, 360.0000030593939755, -3.7176336313587, -4.0907429609297e-12, 4.8272980558212e-05, -5.5524659202265e-19, 20934426.0000001080334187, -0.0000000000002029, 17.6377237432771032, 0.00034817270804311, 8776.0000075363, 20925650, 0.119843957, 0.041945385, 0.119843957, 0, 0, 0, 0, 0, 0, -1.03188537e-14, -0, -1.03188537e-14, -1.03188537e-14, -1.03188537e-14, -3.61159881e-15, -1.03188537e-14, 15, 0.5, 1, 0, 109.7679064, -2.666192051e-05, -1.488765116e-10, 0.6351242719
0.09166663, 0, 0, 0, 0.5, 0, 0, 2.403293552, -4.251232647e-13, 15, 0.0000000000013134, 0.0000006878943776, -0.0000000000008293, 0.0000000000411382, 0.0000132314130528, -0.0000000000240531, 40.87064571, 7150343.98, 211.652767974, 1541.16505019, 211.2073891122470286, -0.0000000000262361, -13.7234462003935764, 211.2073891122470286, -0.0000000000262361, -13.7234462003935764, 211.6527682678916449, -0.0000000000202117, -0.0002016203329074, 8776.0000108816, 8776.0000108816, 0.0000000000000259, -3.7175744504854036, 360.0000030593939755, -3.7176341131075, -7.1022833568289e-12, 5.7927576622051e-05, -1.2561534078657e-18, 20934426.0000001825392246, -0.0000000000004590, 21.1652684744684763, 0.00041780724965173, 8776.0000108816, 20925650, 0.119843957, 0.041945385, 0.119843957, 0, 0, 0, 0, 0, 0, -2.11994304e-14, -0, -2.11994304e-14, -2.11994304e-14, -2.11994304e-14, -7.41980063e-15, -2.11994304e-14, 15, 0.5, 1, 0, 109.7679061, -3.113181934e-05, -2.13898181e-10, 0.6351242719
0.10833329, 0, 0, 0, 0.5, 0, 0, 2.403293552, -7.731468702e-13, 15, 0.0000000000024120, 0.0000009540935625, -0.0000000000014401, 0.0000000000663957, 0.0000159773244691, -0.0000000000368616, 40.87064545, 7150343.957, 211.652767317, 1541.1650501, 211.2073883236911058, -0.0000000000417029, -13.7234482043133941, 211.2073883236911058, -0.0000000000417029, -13.7234482043133941, 211.6527676574382895, -0.0000000000334682, -0.0002392431576617, 8776.000014849, 8776.0000148527, 0.0000000000000567, -3.7175647823506761, 360.0000030593939186, -3.7176346682811, -1.1289237035615e-11, 6.7582172660159e-05, -2.4680063393673e-18, 20934426.0000002868473530, -0.0000000000009017, 24.6928131962599018, 0.00048744179126036, 8776.0000148527, 20925650, 0.119843957, 0.041945385, 0.119843957, 0, 0, 0, 0, 0, 0, -3.85541668e-14, -0, -3.85541668e-14, -3.85541668e-14, -3.85541668e-14, -1.34939584e-14, -3.85541668e-14, 15, 0.5, 1, 0, 109.7679057, -3.547300431e-05, -2.898890799e-10, 0.6351242719
0.12499995, 0, 0, 0, 0.5, 0, 0, 2.403293552, -1.29072483e-12, 15, 0.0000000000040655, 0.0000012674396504, -0.0000000000023238, 0.0000000000997400, 0.0000188057178446, -0.0000000000532544, 40.87064516, 7150343.931, 211.652766567, 1541.16505001, 211.2073874248445406, -0.0000000000621779, -13.7234504649539666, 211.2073874248445406, -0.0000000000621779, -13.7234504649539666, 211.6527669537741758, -0.0000000000514349, -0.0002771496432672, 8776.0000194497, 8776.0000194497, 0.0000000000001108, -3.7175551093906134, 360.0000030593939186, -3.7176352947405, -1.6831954921592e-11, 7.7236768668295e-05, -4.3900505999956e-18, 20934426.0000004284083843, -0.0000000000016040, 28.2203579071014978, 0.00055707633286898, 8776.0000194497, 20925650, 0.119843957, 0.041945385, 0.119843957, 0, 0, 0, 0, 0, 0, -6.43639938e-14, -0, -6.43639938e-14, -6.43639938e-14, -6.43639938e-14, -2.25273978e-14, -6.43639938e-14, 15, 0.5, 1, 0, 109.7679052, -3.968619205e-05, -3.765529793e-10, 0.6351242719
0.14166661, 0, 0, 0, 0.5, 0, 0, 2.403293552, -2.021728774e-12, 15, 0.0000000000064226, 0.0000016291962153, -0.0000000000035458, 0.0000000001420114, 0.0000217099376637, -0.0000000000735747, 40.87064482, 7150343.901, 211.652765723, 1541.1650499, 211.2073864158037679, -0.0000000000883091, -13.7234529744492590, 211.2073864158037679, -0.0000000000883091, -13.7234529744492590, 211.6527661564823575, -0.0000000000747837, -0.0003153348127398, 8776.0000246838, 8776.0000246838, 0.0000000000001989, -3.7175454308085718, 360.0000030593939186, -3.7176359903588, -2.3905858847752e-11, 8.6891364642196e-05, -7.2525118753992e-18, 20934426.0000006109476089, -0.0000000000026499, 31.7479026054363942, 0.0006267108744776, 8776.0000246838, 20925650, 0.119843957, 0.041945385, 0.119843957, 0, 0, 0, 0, 0, 0, -1.00816638e-13, -0, -1.00816638e-13, -1.00816638e-13, -1.00816638e-13, -3.52858234e-14, -1.00816638e-13, 15, 0.5, 1, 0, 109.7679046, -4.377219801e-05, -4.735946459e-10, 0.6351242719
0.15833327, 0, 0, 0, 0.5, 0, 0, 2.403293552, -3.013894493e-12, 15, 0.0000000000096449, 0.0000020405191630, -0.0000000000051769, 0.0000000001939631, 0.0000246835238916, -0.0000000000981419, 40.87064446, 7150343.868, 211.652764784, 1541.16504978, 211.2073852966677805, -0.0000000001207265, -13.7234557249868327, 211.2073852966677805, -0.0000000001207265, -13.7234557249868327, 211.6527652651517428, -0.0000000001041714, -0.0003537938170997, 8776.0000305586, 8776.0000305586, 0.0000000000003346, -3.7175357457877420, 360.0000030593938050, -3.717636753024, -3.2681460152758e-11, 9.6545960577582e-05, -1.1315915564543e-17, 20934426.0000008381903172, -0.0000000000041345, 35.2754472897008213, 0.00069634541608622, 8776.0000305586, 20925650, 0.119843957, 0.041945385, 0.119843957, 0, 0, 0, 0, 0, 0, -1.50292519e-13, -0, -1.50292519e-13, -1.50292519e-13, -1.50292519e-13, -5.26023818e-14, -1.50292519e-13, 15, 0.5, 1, 0, 109.7679041, -4.773193672e-05, -5.807200838e-10, 0.6351242719
0.17499993, 0, 0, 0, 0.5, 0, 0, 2.403293552, -4.318548612e-12, 15, 0.0000000000139049, 0.0000025024598748, -0.0000000000072929, 0.0000000002562671, 0.0000277202049289, -0.0000000001272524, 40.87064405, 7150343.832, 211.652763751, 1541.16504964, 211.2073840675373617, -0.0000000001600419, -13.7234587088134887, 211.2073840675373617, -0.0000000001600419, -13.7234587088134887, 211.6527642793775215, -0.0000000001402405, -0.0003925219347565, 8776.0000370741, 8776.0000370741, 0.0000000000005340, -3.7175260534929455, 360.0000030593936913, -3.7176375806398, -4.3324382281054e-11, 0.00010620055647015, -1.6870422210383e-17, 20934426.0000011138617992, -0.0000000000061640, 38.8029919583241991, 0.00076597995769484, 8776.0000370741, 20925650, 0.119843957, 0.041945385, 0.119843957, 0, 0, 0, 0, 0, 0, -2.15351119e-13, -0, -2.15351119e-13, -2.15351119e-13, -2.15351119e-13, -7.53728916e-14, -2.15351119e-13, 15, 0.5, 1, 0, 109.7679034, -5.156641168e-05, -6.97636769e-10, 0.6351242719
0.19166659, 0, 0, 0, 0.5, 0, 0, 2.403293552, -5.990344574e-12, 15, 0.0000000000193852, 0.0000030159683939, -0.0000000000099741, 0.0000000003295181, 0.0000308139006223, -0.0000000001611806, 40.8706436, 7150343.793, 211.652762623, 1541.16504949, 211.2073827285145455, -0.0000000002068491, -13.7234619182407993, 211.2073827285145455, -0.0000000002068491, -13.7234619182407993, 211.6527631987601126, -0.0000000001836195, -0.0004315145706091, 8776.0000442378, 8776.0000442341, 0.0000000000008167, -3.7175163530723223, 360.0000030593935776, -3.7176384711276, -5.5995387149807e-11, 0.00011585515231559, -2.4235178951552e-17, 20934426.0000014416873455, -0.0000000000088549, 42.3305366097292648, 0.00083561449930347, 8776.0000442341, 20925650, 0.119843957, 0.041945385, 0.119843957, 0, 0, 0, 0, 0, 0, -2.98717815e-13, -0, -2.98717815e-13, -2.98717815e-13, -2.98717815e-13, -1.04551235e-13, -2.98717815e-13, 15, 0.5, 1, 0, 109.7679027, -5.527671482e-05, -8.240538711e-10, 0.6351242719
0.20833325, 0, 0, 0, 0.5, 0, 0, 2.403293552, -8.087007772e-12, 15, 0.0000000000262770, 0.0000035818965671, -0.0000000000133050, 0.0000000004142387, 0.0000339587187194, -0.0000000002001790, 40.87064312, 7150343.75, 211.6527614, 1541.16504933, 211.2073812797018775, -0.0000000002617241, -13.7234653456502187, 211.2073812797018775, -0.0000000002617241, -13.7234653456502187, 211.6527620229051649, -0.0000000002349231, -0.0004707672552389, 8776.0000520572, 8776.0000520572, 0.0000000000012051, -3.7175066436590107, 360.0000030593934071, -3.7176394224274, -7.0850405220981e-11, 0.00012550974810957, -3.3757686816797e-17, 20934426.0000018291175365, -0.0000000000123342, 45.8580812423321333, 0.00090524904091209, 8776.0000520572, 20925650, 0.119843957, 0.041945385, 0.119843957, 0, 0, 0, 0, 0, 0, -4.03271174e-13, -0, -4.03271174e-13, -4.03271174e-13, -4.03271174e-13, -1.41144911e-13, -4.03271174e-13, 15, 0.5, 1, 0, 109.7679019, -5.886401773e-05, -9.596824706e-10, 0.6351242719
0.22499991, 0, 0, 0, 0.5, 0, 0, 2.403293552, -1.066908967e-11, 15, 0.0000000000347790, 0.0000042010011131, -0.0000000000173740, 0.0000000005108832, 0.0000371489512928, -0.0000000002444797, 40.8706426, 7150343.704, 211.65276008, 1541.16504916, 211.2073797212020168, -0.0000000003252252, -13.7234689834978809, 211.2073797212020168, -0.0000000003252252, -13.7234689834978809, 211.6527607514235001, -0.0000000002947527, -0.0005102756437978, 8776.0000605285, 8776.0000605285, 0.0000000000017251, -3.7174969243727571, 360.0000030593931228, -3.7176404324997, -8.8040569025266e-11, 0.00013516434384772, -4.5813183688761e-17, 20934426.0000022761523724, -0.0000000000167390, 49.3856258545423898, 0.00097488358252071, 8776.0000605285, 20925650, 0.119843957, 0.041945385, 0.119843957, 0, 0, 0, 0, 0, 0, -5.32030689e-13, -0, -5.32030689e-13, -5.32030689e-13, -5.32030689e-13, -1.86210741e-13, -5.32030689e-13, 15, 0.5, 1, 0, 109.7679011, -6.232956916e-05, -1.10423576e-09, 0.6351242719
0.24166657, 0, 0, 0, 0.5, 0, 0, 2.403293552, -1.37997307e-11, 15, 0.0000000000450967, 0.0000048739467437, -0.0000000000222731, 0.0000000006198423, 0.0000403790784782, -0.0000000002942948, 40.87064204, 7150343.655, 211.652758665, 1541.16504897, 211.2073780531170257, -0.0000000003978931, -13.7234728243193018, 211.2073780531170257, -0.0000000003978931, -13.7234728243193018, 211.6527593839305723, -0.0000000003636967, -0.0005500355148929, 8776.0000696592, 8776.0000696592, 0.0000000000024061, -3.7174871943214680, 360.0000030593927818, -3.7176414993262, -1.0771224997731e-10, 0.00014481893952568, -6.0804042749455e-17, 20934426.0000027902424335, -0.0000000000222163, 52.9131704447631890, 0.0010445181241293, 8776.0000696592, 20925650, 0.119843957, 0.041945385, 0.119843957, 0, 0, 0, 0, 0, 0, -6.88144956e-13, -0, -6.88144956e-13, -6.88144956e-13, -6.88144956e-13, -2.40850735e-13, -6.88144956e-13, 15, 0.5, 1, 0, 109.7679002, -6.567469374e-05, -1.257429237e-09, 0.6351242719
0.25833323, 0, 0, 0, 0.5, 0, 0, 2.403293552, -1.754443183e-11, 15, 0.0000000000574408, 0.0000056013091766, -0.0000000000280973, 0.0000000007414464, 0.0000436437601314, -0.0000000003498172, 40.87064145, 7150343.602, 211.652757153, 1541.16504877, 211.2073762755478867, -0.0000000004802511, -13.7234768607336406, 211.2073762755478867, -0.0000000004802511, -13.7234768607336406, 211.6527579200463549, -0.0000000004423309, -0.0005900427695238, 8776.0000794604, 8776.0000794604, 0.0000000000032812, -3.7174774526027248, 360.0000030593923839, -3.7176426209113, -1.3000709841655e-10, 0.00015447353513906, -7.9159186213947e-17, 20934426.0000033751130104, -0.0000000000289228, 56.4407150113912977, 0.001114152665738, 8776.0000794604, 20925650, 0.119843957, 0.041945385, 0.119843957, 0, 0, 0, 0, 0, 0, -8.74880281e-13, -0, -8.74880281e-13, -8.74880281e-13, -8.74880281e-13, -3.06208098e-13, -8.74880281e-13, 15, 0.5, 1, 0, 109.7678993, -6.89007814e-05, -1.418980896e-09, 0.6351242719
0.27499989, 0, 0, 0, 0.5, 0, 0, 2.403293552, -2.197083456e-11, 15, 0.0000000000720267, 0.0000063835781761, -0.0000000000349448, 0.0000000008759697, 0.0000469378380808, -0.0000000004112211, 40.87064081, 7150343.546, 211.652755544, 1541.16504855, 211.2073743885941042, -0.0000000005728052, -13.7234810854477498, 211.2073743885941042, -0.0000000005728052, -13.7234810854477498, 211.6527563593950276, -0.0000000005312184, -0.0006302934297082, 8776.0000899248, 8776.0000899248, 0.0000000000043868, -3.7174676983052382, 360.0000030593918723, -3.7176437952831, -1.5506208665305e-10, 0.00016412813068345, -1.0133351416666e-16, 20934426.0000040344893932, -0.0000000000370247, 59.9682595528171944, 0.0011837872073466, 8776.0000899248, 20925650, 0.119843957, 0.041945385, 0.119843957, 0, 0, 0, 0, 0, 0, -1.09560971e-12, -0, -1.09560971e-12, -1.09560971e-12, -1.09560971e-12, -3.83463399e-13, -1.09560971e-12, 15, 0.5, 1, 0, 109.7678983, -7.200928533e-05, -1.588611401e-09, 0.6351242719
0.29166655, 0, 0, 0, 0.5, 0, 0, 2.403293552, -2.714850925e-11, 15, 0.0000000000890735, 0.0000072211604889, -0.0000000000429161, 0.0000000010236338, 0.0000502563329316, -0.0000000004786633, 40.87064014, 7150343.486, 211.652753837, 1541.16504833, 211.2073723923530224, -0.0000000006760441, -13.7234854912599609, 211.2073723923530224, -0.0000000006760441, -13.7234854912599609, 211.6527547016047492, -0.0000000006309108, -0.0006707836371174, 8776.0001010671, 8776.0001010709, 0.0000000000057633, -3.7174579305102586, 360.0000030593911902, -3.7176450204945, -1.8300955483561e-10, 0.00017378272615444, -1.2780734830342e-16, 20934426.0000047720968723, -0.0000000000466976, 63.4958040674251265, 0.0012534217489552, 8776.0001010709, 20925650, 0.119843957, 0.041945385, 0.119843957, 0, 0, 0, 0, 0, 0, -1.35380248e-12, -0, -1.35380248e-12, -1.35380248e-12, -1.35380248e-12, -4.73830869e-13, -1.35380248e-12, 15, 0.5, 1, 0, 109.7678972, -7.500172397e-05, -1.766044249e-09, 0.6351242719
0.30833321, 0, 0, 0, 0.5, 0, 0, 2.403293552, -3.31487515e-11, 15, 0.0000000001088031, 0.0000081143828202, -0.0000000000521143, 0.0000000011846110, 0.0000535944403446, -0.0000000005522830, 40.87063943, 7150343.423, 211.652752033, 1541.16504808, 211.2073702869195415, -0.0000000007904400, -13.7234900710637113, 211.2073702869195415, -0.0000000007904400, -13.7234900710637113, 211.6527529463075723, -0.0000000007419475, -0.0007115096518007, 8776.0001128837, 8776.0001128837, 0.0000000000074549, -3.7174481482929314, 360.0000030593904512, -3.717646294624, -2.1397725955113e-10, 0.00018343732154757, -1.5908589037297e-16, 20934426.0000055916607380, -0.0000000000581260, 67.0233485535931806, 0.0013230562905638, 8776.0001128837, 20925650, 0.119843957, 0.041945385, 0.119843957, 0, 0, 0, 0, 0, 0, -1.65301386e-12, -0, -1.65301386e-12, -1.65301386e-12, -1.65301386e-12, -5.78554852e-13, -1.65301386e-12, 15, 0.5, 1, 0, 109.7678961, -7.787966571e-05, -1.951005935e-09, 0.6351242719
0.32499987, 0, 0, 0, 0.5, 0, 0, 2.403293552, -4.004438658e-11, 15, 0.0000000001314395, 0.0000090634947265, -0.0000000000626444, 0.0000000013590275, 0.0000569475324104, -0.0000000006322034, 40.87063868, 7150343.357, 211.652750131, 1541.16504783, 211.2073680723856057, -0.0000000009164479, -13.7234948178508134, 211.2073680723856057, -0.0000000009164479, -13.7234948178508134, 211.6527510931391021, -0.0000000008648567, -0.0007524678505746, 8776.0001253821, 8776.0001253821, 0.0000000000095095, -3.7174383507236133, 360.0000030593894849, -3.7176476157768, -2.4808842500441e-10, 0.0001930919168584, -1.9569869511773e-16, 20934426.0000065006315708, -0.0000000000715033, 70.5508930096933398, 0.0013926908321724, 8776.0001253821, 20925650, 0.119843957, 0.041945385, 0.119843957, 0, 0, 0, 0, 0, 0, -1.99687539e-12, -0, -1.99687539e-12, -1.99687539e-12, -1.99687539e-12, -6.98906387e-13, -1.99687539e-12, 15, 0.5, 1, 0, 109.7678949, -8.064473634e-05, -2.143226096e-09, 0.6351242719
0.34166653, 0, 0, 0, 0.5, 0, 0, 2.403293552, -4.790958157e-11, 15, 0.0000000001572081, 0.0000100686714542, -0.0000000000746132, 0.0000000015469662, 0.0000603111498930, -0.0000000007185316, 40.87063789, 7150343.287, 211.652748131, 1541.16504756, 211.2073657488397771, -0.0000000010545065, -13.7234997247145305, 211.2073657488397771, -0.0000000010545065, -13.7234997247145305, 211.6527491417380418, -0.0000000010001556, -0.0007936547256140, 8776.0001385659, 8776.0001385696, 0.0000000000119789, -3.7174285368691211, 360.0000030593882911, -3.7176489820858, -2.8546179660065e-10, 0.00020274651208245, -2.381991575093e-16, 20934426.0000074990093708, -0.0000000000870319, 74.0784374340915548, 0.0014623253737811, 8776.0001385696, 20925650, 0.119843957, 0.041945385, 0.119843957, 0, 0, 0, 0, 0, 0, -2.38908553e-12, -0, -2.38908553e-12, -2.38908553e-12, -2.38908553e-12, -8.36179934e-13, -2.38908553e-12, 15, 0.5, 1, 0, 109.7678937, -8.329860698e-05, -2.342437655e-09, 0.6351242719
0.35833319, 0, 0, 0, 0.5, 0, 0, 2.403293552, -5.681966512e-11, 15, 0.0000000001863351, 0.0000111300167880, -0.0000000000881291, 0.0000000017484702, 0.0000636810045736, -0.0000000008113599, 40.87063706, 7150343.214, 211.652746031, 1541.16504728, 211.2073633163669228, -0.0000000012050382, -13.7235047848524641, 211.2073633163669228, -0.0000000012050382, -13.7235047848524641, 211.6527470917464200, -0.0000000011483506, -0.0008350668827575, 8776.0001524314, 8776.0001524277, 0.0000000000149189, -3.7174187057939641, 360.0000030593869838, -3.7176503917117, -3.262116968037e-10, 0.00021240110721524, -2.8716401406758e-16, 20934426.0000085867941380, -0.0000000001049225, 77.6059818251477793, 0.0015319599153897, 8776.0001524277, 20925650, 0.119843957, 0.041945385, 0.119843957, 0, 0, 0, 0, 0, 0, -2.83340065e-12, -0, -2.83340065e-12, -2.83340065e-12, -2.83340065e-12, -9.91690228e-13, -2.83340065e-12, 15, 0.5, 1, 0, 109.7678924, -8.584299459e-05, -2.548376951e-09, 0.6351242719
0.37499985, 0, 0, 0, 0.5, 0, 0, 2.403293552, -6.685095471e-11, 15, 0.0000000002190467, 0.0000122475658465, -0.0000000001033016, 0.0000000019635453, 0.0000670529772358, -0.0000000009107658, 40.8706362, 7150343.137, 211.652743833, 1541.16504698, 211.2073607750477606, -0.0000000013684490, -13.7235099915692231, 211.2073607750477606, -0.0000000013684490, -13.7235099915692231, 211.6527449428092780, -0.0000000013099373, -0.0008767010399637, 8776.0001669936, 8776.0001669936, 0.0000000000183890, -3.7174088565614976, 360.0000030593853921, -3.7176518428445, -3.7044808311533e-10, 0.00022205570225225, -3.4319285805098e-16, 20934426.0000097751617432, -0.0000000001253940, 81.1335261812160127, 0.0016015944569983, 8776.0001669936, 20925650, 0.119843957, 0.041945385, 0.119843957, 0, 0, 0, 0, 0, 0, -3.33362645e-12, -0, -3.33362645e-12, -3.33362645e-12, -3.33362645e-12, -1.16676926e-12, -3.33362645e-12, 15, 0.5, 1, 0, 109.767891, -8.827965935e-05, -2.760783867e-09, 0.6351242719
0.39166651, 0, 0, 0, 0.5, 0, 0, 2.403293552, -7.808059113e-11, 15, 0.0000000002555687, 0.0000134212877510, -0.0000000001202415, 0.0000000021921623, 0.0000704231070032, -0.0000000010168131, 40.87063529, 7150343.056, 211.652741535, 1541.16504668, 211.2073581249584890, -0.0000000015451293, -13.7235153382786983, 211.2073581249584890, -0.0000000015451293, -13.7235153382786983, 211.6527426945741581, -0.0000000014854017, -0.0009185540256134, 8776.0001822524, 8776.0001822487, 0.0000000000224527, -3.7173989882350549, 360.0000030593835163, -3.7176533337037, -4.1827660810213e-10, 0.00023171029718897, -4.0690766830232e-16, 20934426.0000110641121864, -0.0000000001486737, 84.6610705006443709, 0.0016712289986069, 8776.0001822487, 20925650, 0.119843957, 0.041945385, 0.119843957, 0, 0, 0, 0, 0, 0, -3.89360967e-12, -0, -3.89360967e-12, -3.89360967e-12, -3.89360967e-12, -1.36276339e-12, -3.89360967e-12, 15, 0.5, 1, 0, 109.7678896, -9.061039399e-05, -2.979401939e-09, 0.6351242719
0.40833317, 0, 0, 0, 0.5, 0, 0, 2.403293552, -9.058638011e-11, 15, 0.0000000002961257, 0.0000146510883805, -0.0000000001390604, 0.0000000024342601, 0.0000737875992929, -0.0000000011295522, 40.87063434, 7150342.973, 211.652739138, 1541.16504635, 211.2073553661706171, -0.0000000017354538, -13.7235208185063353, 211.2073553661706171, -0.0000000017354538, -13.7235208185063353, 211.6527403466913313, -0.0000000016752193, -0.0009606227766152, 8776.0001982115, 8776.0001982115, 0.0000000000271774, -3.7173890998790142, 360.0000030593813563, -3.7176548625391, -4.6979868117858e-10, 0.00024136489202085, -4.7895235153832e-16, 20934426.0000124573707581, -0.0000000001749971, 88.1886147817751151, 0.0017408635402156, 8776.0001982115, 20925650, 0.119843957, 0.041945385, 0.119843957, 0, 0, 0, 0, 0, 0, -4.51723022e-12, -0, -4.51723022e-12, -4.51723022e-12, -4.51723022e-12, -1.58103058e-12, -4.51723022e-12, 15, 0.5, 1, 0, 109.7678882, -9.283702979e-05, -3.203978466e-09, 0.6351242719
0.42499983, 0, 0, 0, 0.5, 0, 0, 2.403293552, -1.044466409e-10, 15, 0.0000000003409409, 0.0000159368129866, -0.0000000001598704, 0.0000000026897478, 0.0000771428166766, -0.0000000012490209, 40.87063336, 7150342.885, 211.65273664, 1541.16504602, 211.2073524987504243, -0.0000000019397815, -13.7235264258911549, 211.2073524987504243, -0.0000000019397815, -13.7235264258911549, 211.6527378988132284, -0.0000000018798564, -0.0010029043367918, 8776.0002148673, 8776.0002148673, 0.0000000000326343, -3.7173791905598370, 360.0000030593788551, -3.7176564276312, -5.2511153214256e-10, 0.00025101948674334, -5.5999229785087e-16, 20934426.0000139586627483, -0.0000000002046070, 91.7161590229447086, 0.0018104980818242, 8776.0002148673, 20925650, 0.119843957, 0.041945385, 0.119843957, 0, 0, 0, 0, 0, 0, -5.2083936e-12, -0, -5.2083936e-12, -5.2083936e-12, -5.2083936e-12, -1.82293776e-12, -5.2083936e-12, 15, 0.5, 1, 0, 109.7678867, -9.496142804e-05, -3.434264608e-09, 0.6351242719
0.44166649, 0, 0, 0, 0.5, 0, 0, 2.403293552, -1.197400614e-10, 15, 0.0000000003902356, 0.0000172782487871, -0.0000000001827841, 0.0000000029585067, 0.0000804852773046, -0.0000000013752450, 40.87063233, 7150342.794, 211.652734041, 1541.16504567, 211.2073495227589035, -0.0000000021584564, -13.7235321541875415, 211.2073495227589035, -0.0000000021584564, -13.7235321541875415, 211.6527353505946394, -0.0000000020997700, -0.0010453958549963, 8776.0002322346, 8776.0002322309, 0.0000000000388984, -3.7173692593470591, 360.0000030593759561, -3.7176580272916, -5.843082763248e-10, 0.00026067408135188, -6.5071394920032e-16, 20934426.0000155717134476, -0.0000000002377544, 95.2437032224838447, 0.0018801326234328, 8776.0002322309, 20925650, 0.119843957, 0.041945385, 0.119843957, 0, 0, 0, 0, 0, 0, -5.97102372e-12, -0, -5.97102372e-12, -5.97102372e-12, -5.97102372e-12, -2.0898583e-12, -5.97102372e-12, 15, 0.5, 1, 0, 109.7678851, -9.698547997e-05, -3.670015478e-09, 0.6351242719
0.45833315, 0, 0, 0, 0.5, 0, 0, 2.403293552, -1.365455607e-10, 15, 0.0000000004442285, 0.0000186751275582, -0.0000000002079143, 0.0000000032403930, 0.0000838116532944, -0.0000000015082384, 40.87063127, 7150342.7, 211.652731342, 1541.1650453, 211.2073464382512782, -0.0000000023918076, -13.7235379972668881, 211.2073464382512782, -0.0000000023918076, -13.7235379972668881, 211.6527327016923152, -0.0000000023354077, -0.0010880945833414, 8776.000250306, 8776.0002503097, 0.0000000000460485, -3.7173593053142286, 360.0000030593727729, -3.717659659864, -6.4747798118379e-10, 0.00027032867584188, -7.518243806803e-16, 20934426.0000173002481461, -0.0000000002746976, 98.7712473787174474, 0.0019497671650414, 8776.0002503097, 20925650, 0.119843957, 0.041945385, 0.119843957, 0, 0, 0, 0, 0, 0, -6.80905598e-12, -0, -6.80905598e-12, -6.80905598e-12, -6.80905598e-12, -2.38316959e-12, -6.80905598e-12, 15, 0.5, 1, 0, 109.7678834, -9.89110966e-05, -3.91099023e-09, 0.6351242719
0.47499981, 0, 0, 0, 0.5, 0, 0, 2.403293552, -1.549421566e-10, 15, 0.0000000005031357, 0.0000201271280794, -0.0000000002353740, 0.0000000035352394, 0.0000871187660139, -0.0000000016480043, 40.87063016, 7150342.602, 211.652728542, 1541.16504493, 211.2073432452769453, -0.0000000026401494, -13.7235439491189215, 211.2073432452769453, -0.0000000026401494, -13.7235439491189215, 211.6527299517647691, -0.0000000025872087, -0.0011309978751601, 8776.0002690963, 8776.0002690963, 0.0000000000541673, -3.7173493275398148, 360.0000030593690781, -3.7176613237238, -7.1470573424787e-10, 0.00027998327020874, -8.6405089432686e-16, 20934426.0000191479921341, -0.0000000003157023, 102.2987914899647990, 0.00201940170665, 8776.0002690963, 20925650, 0.119843957, 0.041945385, 0.119843957, 0, 0, 0, 0, 0, 0, -7.72643074e-12, -0, -7.72643074e-12, -7.72643074e-12, -7.72643074e-12, -2.70425076e-12, -7.72643074e-12, 15, 0.5, 1, 0, 109.7678817, -0.0001007402169, -4.156952125e-09, 0.6351242719
0.49166647, 0, 0, 0, 0.5, 0, 0, 2.403293552, -1.750088413e-10, 15, 0.0000000005671701, 0.0000216338786549, -0.0000000002652759, 0.0000000038428572, 0.0000904035852876, -0.0000000017945354, 40.87062902, 7150342.5, 211.65272564, 1541.16504453, 211.2073399438790773, -0.0000000029037816, -13.7235500038530738, 211.2073399438790773, -0.0000000029037816, -13.7235500038530738, 211.6527271004722763, -0.0000000028556035, -0.0011741031832759, 8776.000288602, 8776.000288602, 0.0000000000633409, -3.7173393251080680, 360.0000030593648717, -3.717663017279, -7.8607271223068e-10, 0.00028963786444784, -9.8814062524386e-16, 20934426.0000211186707020, -0.0000000003610415, 105.8263355545394404, 0.0020890362482587, 8776.000288602, 20925650, 0.119843957, 0.041945385, 0.119843957, 0, 0, 0, 0, 0, 0, -8.72708707e-12, -0, -8.72708707e-12, -8.72708707e-12, -8.72708707e-12, -3.05448048e-12, -8.72708707e-12, 15, 0.5, 1, 0, 109.76788, -0.0001024747929, -4.407668614e-09, 0.6351242719
0.50833313, 0, 0, 0, 0.5, 0, 0, 2.403293552, -1.968244614e-10, 15, 0.0000000006365411, 0.0000231949594734, -0.0000000002977324, 0.0000000041630383, 0.0000936632252600, -0.0000000019478143, 40.87062783, 7150342.395, 211.652722636, 1541.16504413, 211.2073365340944804, -0.0000000031829899, -13.7235561556994412, 211.2073365340944804, -0.0000000031829899, -13.7235561556994412, 211.6527241474767322, -0.0000000031410144, -0.0012174080578795, 8776.0003088266, 8776.0003088266, 0.0000000000736594, -3.7173292971098437, 360.0000030593602105, -3.7176647389703, -8.6165625127341e-10, 0.00029929245855455, -1.1248601598114e-15, 20934426.0000232160091400, -0.0000000004109954, 109.3538795707492994, 0.0021586707898673, 8776.0003088266, 20925650, 0.119843957, 0.041945385, 0.119843957, 0, 0, 0, 0, 0, 0, -9.81495677e-12, -0, -9.81495677e-12, -9.81495677e-12, -9.81495677e-12, -3.43523487e-12, -9.81495677e-12, 15, 0.5, 1, 0, 109.7678782, -0.0001041167978, -4.662911384e-09, 0.6351242719
0.52499979, 0, 0, 0, 0.5, 0, 0, 2.403293552, -2.204676053e-10, 15, 0.0000000007114543, 0.0000248099049742, -0.0000000003328557, 0.0000000044955565, 0.0000968949406639, -0.0000000021078141, 40.87062661, 7150342.287, 211.65271953, 1541.16504371, 211.2073330159533953, -0.0000000034780462, -13.7235623990097437, 211.2073330159533953, -0.0000000034780462, -13.7235623990097437, 211.6527210924411975, -0.0000000034438558, -0.0012609101447065, 8776.0003297739, 8776.0003297739, 0.0000000000852162, -3.7173192426433821, 360.0000030593549241, -3.7176664872713, -9.4152991812862e-10, 0.00030894705252422, -1.2749951657494e-15, 20934426.0000254400074482, -0.0000000004658509, 112.8814235368966905, 0.0022283053314759, 8776.0003297739, 20925650, 0.119843957, 0.041945385, 0.119843957, 0, 0, 0, 0, 0, 0, -1.09939588e-11, -0, -1.09939588e-11, -1.09939588e-11, -1.09939588e-11, -3.84788557e-12, -1.09939588e-11, 15, 0.5, 1, 0, 109.7678763, -0.0001056682164, -4.922456426e-09, 0.6351242719
0.54166645, 0, 0, 0, 0.5, 0, 0, 2.403293552, -2.460164954e-10, 15, 0.0000000007921113, 0.0000264782061656, -0.0000000003707570, 0.0000000048401696, 0.0001000961248696, -0.0000000022744993, 40.87062534, 7150342.174, 211.652716322, 1541.16504327, 211.2073293894793267, -0.0000000037892084, -13.7235687282581011, 211.2073293894793267, -0.0000000037892084, -13.7235687282581011, 211.6527179350302390, -0.0000000037645343, -0.0013046071830018, 8776.0003514513, 8776.0003514513, 0.0000000000981083, -3.7173091608150521, 360.0000030593490692, -3.717668260689, -1.0257635822283e-09, 0.00031860164635219, -1.4393500338005e-15, 20934426.0000277981162071, -0.0000000005259020, 116.4089674512783148, 0.0022979398730845, 8776.0003514513, 20925650, 0.119843957, 0.041945385, 0.119843957, 0, 0, 0, 0, 0, 0, -1.22679938e-11, -0, -1.22679938e-11, -1.22679938e-11, -1.22679938e-11, -4.29379782e-12, -1.22679938e-11, 15, 0.5, 1, 0, 109.7678744, -0.0001071310446, -5.186084078e-09, 0.6351242719
0.55833311, 0, 0, 0, 0.5, 0, 0, 2.403293552, -2.735488867e-10, 15, 0.0000000008787094, 0.0000281993129172, -0.0000000004115472, 0.0000000051966208, 0.0001032643091176, -0.0000000024478254, 40.87062403, 7150342.059, 211.652713011, 1541.16504283, 211.2073256546888445, -0.0000000041167212, -13.7235751380416389, 211.2073256546888445, -0.0000000041167212, -13.7235751380416389, 211.6527146749094186, -0.0000000041034489, -0.0013484970035762, 8776.000373859, 8776.000373859, 0.0000000001124361, -3.7172990507400576, 360.0000030593425322, -3.7176700577636, -1.1144234885167e-09, 0.00032825624003378, -1.6187475308029e-15, 20934426.0000302903354168, -0.0000000005914493, 119.9365113121852886, 0.0023675744146932, 8776.000373859, 20925650, 0.119843957, 0.041945385, 0.119843957, 0, 0, 0, 0, 0, 0, -1.36409391e-11, -0, -1.36409391e-11, -1.36409391e-11, -1.36409391e-11, -4.7743287e-12, -1.36409391e-11, 15, 0.5, 1, 0, 109.7678724, -0.0001085072857, -5.453579069e-09, 0.6351242719
0.57499977, 0, 0, 0, 0.5, 0, 0, 2.403293552, -3.031419704e-10, 15, 0.0000000009714415, 0.0000299726360879, -0.0000000004553360, 0.0000000055646401, 0.0001063971536235, -0.0000000026277404, 40.87062269, 7150341.939, 211.652709596, 1541.16504236, 211.2073218115914131, -0.0000000044608164, -13.7235816230807934, 211.2073218115914131, -0.0000000044608164, -13.7235816230807934, 211.6527113117453496, -0.0000000044609917, -0.0013925775267136, 8776.0003969967, 8776.0003969967, 0.0000000001283036, -3.7172889115430960, 360.0000030593353131, -3.7176718770685, -1.2075723309269e-09, 0.0003379108335643, -1.8140284639198e-15, 20934426.0000329241156578, -0.0000000006628000, 123.4640551179031576, 0.0024372089563018, 8776.0003969967, 20925650, 0.119843957, 0.041945385, 0.119843957, 0, 0, 0, 0, 0, 0, -1.51166441e-11, -0, -1.51166441e-11, -1.51166441e-11, -1.51166441e-11, -5.29082544e-12, -1.51166441e-11, 15, 0.5, 1, 0, 109.7678704, -0.0001097989513, -5.72473055e-09, 0.6351242719
0.59166643, 0, 0, 0, 0.5, 0, 0, 2.403293552, -3.348722831e-10, 15, 0.0000000010704956, 0.0000317975497716, -0.0000000005022323, 0.0000000059439458, 0.0001094924518358, -0.0000000028141843, 40.8706213, 7150341.816, 211.652706078, 1541.16504189, 211.2073178601892494, -0.0000000048217126, -13.7235881782197922, 211.2073178601892494, -0.0000000048217126, -13.7235881782197922, 211.6527078452054411, -0.0000000048375474, -0.0014368467602015, 8776.0004208758, 8776.0004208758, 0.0000000001458178, -3.7172787423590030, 360.0000030593273550, -3.7176737172111, -1.3052693263633e-09, 0.00034756542693904, -2.0260513557922e-15, 20934426.0000356994569302, -0.0000000007402678, 126.9915988667119251, 0.0025068434979104, 8776.0004208758, 20925650, 0.119843957, 0.041945385, 0.119843957, 0, 0, 0, 0, 0, 0, -1.66989253e-11, -0, -1.66989253e-11, -1.66989253e-11, -1.66989253e-11, -5.84462386e-12, -1.66989253e-11, 15, 0.5, 1, 0, 109.7678683, -0.0001110080567, -5.999332131e-09, 0.6351242719
0.60833309, 0, 0, 0, 0.5, 0, 0, 2.403293552, -3.688156211e-10, 15, 0.0000000011760550, 0.0000336733933391, -0.0000000005523438, 0.0000000063342457, 0.0001125481196365, -0.0000000030070904, 40.87061987, 7150341.689, 211.652702456, 1541.1650414, 211.2073138004772943, -0.0000000051996160, -13.7235947984266762, 211.2073138004772943, -0.0000000051996160, -13.7235947984266762, 211.6527042749578413, -0.0000000052334942, -0.0014813027973410, 8776.0004454926, 8776.0004454926, 0.0000000001650891, -3.7172685423333451, 360.0000030593185443, -3.7176755768322, -1.407570289185e-09, 0.00035722002015328, -2.2556921303746e-15, 20934426.0000386200845242, -0.0000000008241727, 130.5191425568860666, 0.002576478039519, 8776.0004454926, 20925650, 0.119843957, 0.041945385, 0.119843957, 0, 0, 0, 0, 0, 0, -1.83915625e-11, -0, -1.83915625e-11, -1.83915625e-11, -1.83915625e-11, -6.43704687e-12, -1.83915625e-11, 15, 0.5, 1, 0, 109.7678661, -0.0001121366159, -6.277181898e-09, 0.6351242719
0.62499975, 0, 0, 0, 0.5, 0, 0, 2.403293552, -4.050469599e-10, 15, 0.0000000012882979, 0.0000355994735433, -0.0000000006057769, 0.0000000067352387, 0.0001155622002923, -0.0000000032063848, 40.8706184, 7150341.559, 211.65269873, 1541.16504089, 211.2073096324429571, -0.0000000055947205, -13.7236014787934408, 211.2073096324429571, -0.0000000055947205, -13.7236014787934408, 211.6527006006714373, -0.0000000056492036, -0.0015259438148174, 8776.0004708506, 8776.0004708469, 0.0000000001862308, -3.7172583106229689, 360.0000030593088809, -3.717677454606, -1.5145277059864e-09, 0.00036687461320227, -2.503843809227e-15, 20934426.0000416897237301, -0.0000000009148411, 134.0466861866945294, 0.0026461125811276, 8776.0004708469, 20925650, 0.119843957, 0.041945385, 0.119843957, 0, 0, 0, 0, 0, 0, -2.01982943e-11, -0, -2.01982943e-11, -2.01982943e-11, -2.01982943e-11, -7.06940302e-12, -2.01982943e-11, 15, 0.5, 1, 0, 109.7678639, -0.0001131866463, -6.558082437e-09, 0.6351242719
0.64166641, 0, 0, 0, 0.5, 0, 0, 2.403293552, -4.436403782e-10, 15, 0.0000000014073975, 0.0000375750665101, -0.0000000006626368, 0.0000000071466154, 0.0001185328561595, -0.0000000034119877, 40.87061689, 7150341.425, 211.652694899, 1541.16504037, 211.2073053560661720, -0.0000000060072080, -13.7236082145358651, 211.2073053560661720, -0.0000000060072080, -13.7236082145358651, 211.6526968220157698, -0.0000000060850409, -0.0015707680707759, 8776.0004969537, 8776.0004969575, 0.0000000002093597, -3.7172480463965436, 360.0000030592982512, -3.7176793492407, -1.6261908106863e-09, 0.00037652920608128, -2.7714162180224e-15, 20934426.0000449083745480, -0.0000000010126053, 137.5742297544007613, 0.0027157471227363, 8776.0004969575, 20925650, 0.119843957, 0.041945385, 0.119843957, 0, 0, 0, 0, 0, 0, -2.21228149e-11, -0, -2.21228149e-11, -2.21228149e-11, -2.21228149e-11, -7.74298523e-12, -2.21228149e-11, 15, 0.5, 1, 0, 109.7678616, -0.0001141601609, -6.841840841e-09, 0.6351242719
0.65833307, 0, 0, 0, 0.5, 0, 0, 2.403293552, -4.84668987e-10, 15, 0.0000000015335215, 0.0000395994196606, -0.0000000007230272, 0.0000000075680597, 0.0001214583646651, -0.0000000036238133, 40.87061533, 7150341.287, 211.652690964, 1541.16503984, 211.2073009713192278, -0.0000000064372486, -13.7236150009932665, 211.2073009713192278, -0.0000000064372486, -13.7236150009932665, 211.6526929386604934, -0.0000000065413652, -0.0016157739026905, 8776.0005238056, 8776.0005238056, 0.0000000002345950, -3.7172377488350410, 360.0000030592867120, -3.7176812594775, -1.7426056597466e-09, 0.00038618379878551, -3.0593357030416e-15, 20934426.0000482797622681, -0.0000000011178037, 141.1017732582626820, 0.0027853816643449, 8776.0005238056, 20925650, 0.119843957, 0.041945385, 0.119843957, 0, 0, 0, 0, 0, 0, -2.41687701e-11, -0, -2.41687701e-11, -2.41687701e-11, -2.41687701e-11, -8.45906953e-12, -2.41687701e-11, 15, 0.5, 1, 0, 109.7678593, -0.0001150591683, -7.128268721e-09, 0.6351242719
0.67499973, 0, 0, 0, 0.5, 0, 0, 2.403293552, -5.282048635e-10, 15, 0.0000000016668323, 0.0000416717536862, -0.0000000007870504, 0.0000000079992497, 0.0001243371211500, -0.0000000038417703, 40.87061374, 7150341.146, 211.652686923, 1541.16503929, 211.2072964781666826, -0.0000000068850009, -13.7236218336282843, 211.2072964781666826, -0.0000000068850009, -13.7236218336282843, 211.6526889502759730, -0.0000000070185298, -0.0016609597253670, 8776.0005514063, 8776.0005514063, 0.0000000002620591, -3.7172274171322144, 360.0000030592740927, -3.7176831840916, -1.8638152074529e-09, 0.0003958383913102, -3.3685448574178e-15, 20934426.0000518076121807, -0.0000000012307809, 144.6293166965327259, 0.0028550162059535, 8776.0005514063, 20925650, 0.119843957, 0.041945385, 0.119843957, 0, 0, 0, 0, 0, 0, -2.6339754e-11, -0, -2.6339754e-11, -2.6339754e-11, -2.6339754e-11, -9.21891392e-12, -2.6339754e-11, 15, 0.5, 1, 0, 109.7678569, -0.0001158856704, -7.417182208e-09, 0.6351242719
0.69166639, 0, 0, 0, 0.5, 0, 0, 2.403293552, -5.743189889e-10, 15, 0.0000000018074869, 0.0000437912643573, -0.0000000008548068, 0.0000000084398587, 0.0001271676311280, -0.0000000040657622, 40.8706121, 7150341, 211.652682777, 1541.16503873, 211.2072918765653071, -0.0000000073506125, -13.7236287080263200, 211.2072918765653071, -0.0000000073506125, -13.7236287080263200, 211.6526848565325736, -0.0000000075168821, -0.0017063240289037, 8776.0005797669, 8776.0005797669, 0.0000000002918771, -3.7172170504950115, 360.0000030592603935, -3.717685121891, -1.9898593812559e-09, 0.00040549298365055, -3.7000022568957e-15, 20934426.0000554993748665, -0.0000000013518871, 148.1568600674578136, 0.0029246507475621, 8776.0005797669, 20925650, 0.119843957, 0.041945385, 0.119843957, 0, 0, 0, 0, 0, 0, -2.86393064e-11, -0, -2.86393064e-11, -2.86393064e-11, -2.86393064e-11, -1.00237572e-11, -2.86393064e-11, 15, 0.5, 1, 0, 109.7678545, -0.0001166416625, -7.708401948e-09, 0.6351242719
0.70833305, 0, 0, 0, 0.5, 0, 0, 2.403293552, -6.230811907e-10, 15, 0.0000000019556368, 0.0000459571243270, -0.0000000009263954, 0.0000000088895561, 0.0001299485066799, -0.0000000042956879, 40.87061042, 7150340.852, 211.652678525, 1541.16503815, 211.2072871664641411, -0.0000000078342199, -13.7236356198949512, 211.2072871664641411, -0.0000000078342199, -13.7236356198949512, 211.6526806571010013, -0.0000000080367643, -0.0017518653766579, 8776.0006088838, 8776.0006088838, 0.0000000003241768, -3.7172066481439821, 360.0000030592455573, -3.7176870717171, -2.1207751569653e-09, 0.00041514757580173, -4.0546822048798e-15, 20934426.0000593550503254, -0.0000000014814781, 151.6844033692794085, 0.0029942852891708, 8776.0006088838, 20925650, 0.119843957, 0.041945385, 0.119843957, 0, 0, 0, 0, 0, 0, -3.10709091e-11, -0, -3.10709091e-11, -3.10709091e-11, -3.10709091e-11, -1.08748182e-11, -3.10709091e-11, 15, 0.5, 1, 0, 109.767852, -0.0001173291267, -8.001753096e-09, 0.6351242719
0.72499971, 0, 0, 0, 0.5, 0, 0, 2.403293552, -6.745600896e-10, 15, 0.0000000021114279, 0.0000481684848837, -0.0000000010019134, 0.0000000093480081, 0.0001326784664690, -0.0000000045314418, 40.8706087, 7150340.699, 211.652674167, 1541.16503756, 211.2072823478043233, -0.0000000083359492, -13.7236425650633205, 211.2072823478043233, -0.0000000083359492, -13.7236425650633205, 211.6526763516518486, -0.0000000085785131, -0.0017975824031033, 8776.0006387606, 8776.0006387606, 0.0000000003590885, -3.7171962093136535, 360.0000030592294706, -3.7176890324444, -2.2565966337668e-09, 0.00042480216775893, -4.4335744865327e-15, 20934426.0000633746385574, -0.0000000016199158, 155.2119466002334889, 0.0030639198307794, 8776.0006387606, 20925650, 0.119843957, 0.041945385, 0.119843957, 0, 0, 0, 0, 0, 0, -3.36379842e-11, -0, -3.36379842e-11, -3.36379842e-11, -3.36379842e-11, -1.17732945e-11, -3.36379842e-11, 15, 0.5, 1, 0, 109.7678494, -0.0001179500377, -8.297065301e-09, 0.6351242719
0.74166637, 0, 0, 0, 0.5, 0, 0, 2.403293552, -7.288230499e-10, 15, 0.0000000022750006, 0.0000504244776831, -0.0000000010814561, 0.0000000098148789, 0.0001353563313327, -0.0000000047729142, 40.87060694, 7150340.543, 211.652669702, 1541.16503696, 211.2072774205191479, -0.0000000088559159, -13.7236495394814728, 211.2072774205191479, -0.0000000088559159, -13.7236495394814728, 211.6526719398558782, -0.0000000091424601, -0.0018434738120181, 8776.0006694011, 8776.0006693974, 0.0000000003967451, -3.7171857332528631, 360.0000030592120766, -3.7176910029798, -2.3973551090384e-09, 0.00043445675951729, -4.8376841316903e-15, 20934426.0000675618648529, -0.0000000017675672, 158.7394897585505191, 0.003133554372388, 8776.0006693974, 20925650, 0.119843957, 0.041945385, 0.119843957, 0, 0, 0, 0, 0, 0, -3.63438908e-11, -0, -3.63438908e-11, -3.63438908e-11, -3.63438908e-11, -1.27203618e-11, -3.63438908e-11, 15, 0.5, 1, 0, 109.7678468, -0.0001185063554, -8.594172695e-09, 0.6351242719
0.75833303, 0, 0, 0, 0.5, 0, 0, 2.403293552, -7.859361341e-10, 15, 0.0000000024464894, 0.0000527242164260, -0.0000000011651168, 0.0000000102898313, 0.0001379810241937, -0.0000000050199917, 40.87060513, 7150340.383, 211.652665131, 1541.16503634, 211.2072723845340079, -0.0000000093942255, -13.7236565392194496, 211.2072723845340079, -0.0000000093942255, -13.7236565392194496, 211.6526674213839385, -0.0000000097289322, -0.0018895383743942, 8776.0007008016, 8776.0007008053, 0.0000000004372818, -3.7171752192250778, 360.0000030591933182, -3.7176929822631, -2.5430791528861e-09, 0.00044411135107196, -5.2680311863695e-15, 20934426.0000719204545021, -0.0000000019248051, 162.2670328424555066, 0.0032031889139966, 8776.0007008053, 20925650, 0.119843957, 0.041945385, 0.119843957, 0, 0, 0, 0, 0, 0, -3.91919232e-11, -0, -3.91919232e-11, -3.91919232e-11, -3.91919232e-11, -1.37171731e-11, -3.91919232e-11, 15, 0.5, 1, 0, 109.7678441, -0.0001190000252, -8.892913871e-09, 0.6351242719
0.77499969, 0, 0, 0, 0.5, 0, 0, 2.403293552, -8.459640611e-10, 15, 0.0000000026260236, 0.0000550667983668, -0.0000000012529871, 0.0000000107725273, 0.0001405515593868, -0.0000000052725575, 40.87060328, 7150340.219, 211.652660452, 1541.1650357, 211.2072672397664803, -0.0000000099509739, -13.7236635604662514, 211.2072672397664803, -0.0000000099509739, -13.7236635604662514, 211.6526627959065081, -0.0000000103382513, -0.0019357749263875, 8776.0007329807, 8776.0007329807, 0.0000000004808362, -3.7171646665086762, 360.0000030591731388, -3.7176949692662, -2.6937946822915e-09, 0.00045376594241806, -5.7256504926438e-15, 20934426.0000764578580856, -0.0000000020920076, 165.7945758501679165, 0.0032728234556052, 8776.0007329807, 20925650, 0.119843957, 0.041945385, 0.119843957, 0, 0, 0, 0, 0, 0, -4.21853088e-11, -0, -4.21853088e-11, -4.21853088e-11, -4.21853088e-11, -1.47648581e-11, -4.21853088e-11, 15, 0.5, 1, 0, 109.7678414, -0.0001194329785, -9.193131856e-09, 0.6351242719
0.79166635, 0, 0, 0, 0.5, 0, 0, 2.403293552, -9.089701683e-10, 15, 0.0000000028137265, 0.0000574513059810, -0.0000000013451564, 0.0000000112626288, 0.0001430670473243, -0.0000000055304917, 40.8706014, 7150340.051, 211.652655666, 1541.16503505, 211.2072619861261558, -0.0000000105262472, -13.7236705995289530, 211.2072619861261558, -0.0000000105262472, -13.7236705995289530, 211.6526580630939520, -0.0000000109707349, -0.0019821823674295, 8776.0007659234, 8776.0007659197, 0.0000000005275480, -3.7171540743972091, 360.0000030591514815, -3.7176969629932, -2.8495250347796e-09, 0.00046342053355071, -6.2115914766573e-15, 20934426.0000811666250229, -0.0000000022695581, 169.3221187799017855, 0.0033424579972139, 8776.0007659197, 20925650, 0.119843957, 0.041945385, 0.119843957, 0, 0, 0, 0, 0, 0, -4.5327206e-11, -0, -4.5327206e-11, -4.5327206e-11, -4.5327206e-11, -1.58645221e-11, -4.5327206e-11, 15, 0.5, 1, 0, 109.7678386, -0.0001198071238, -9.494674086e-09, 0.6351242719
0.80833301, 0, 0, 0, 0.5, 0, 0, 2.403293552, -9.750163768e-10, 15, 0.0000000030097158, 0.0000598768084090, -0.0000000014417121, 0.0000000117597985, 0.0001455266903768, -0.0000000057936716, 40.87059946, 7150339.88, 211.652650772, 1541.16503438, 211.2072566235148372, -0.0000000111201223, -13.7236776528315296, 211.2072566235148372, -0.0000000111201223, -13.7236776528315296, 211.6526532226164932, -0.0000000116266960, -0.0020287596580815, 8776.0007996485, 8776.0007996485, 0.0000000005775590, -3.7171434421996428, 360.0000030591282325, -3.7176989624797, -3.0102910416218e-09, 0.00047307512446501, -6.7269179445488e-15, 20934426.0000860616564751, -0.0000000024578453, 172.8496616298656363, 0.0034120925388225, 8776.0007996485, 20925650, 0.119843957, 0.041945385, 0.119843957, 0, 0, 0, 0, 0, 0, -4.86207025e-11, -0, -4.86207025e-11, -4.86207025e-11, -4.86207025e-11, -1.70172459e-11, -4.86207025e-11, 15, 0.5, 1, 0, 109.7678357, -0.0001201243599, -9.797392368e-09, 0.6351242719
0.82499967, 0, 0, 0, 0.5, 0, 0, 2.403293552, -1.04416316e-09, 15, 0.0000000032141039, 0.0000623423629442, -0.0000000015427397, 0.0000000122637002, 0.0001479297756029, -0.0000000060619718, 40.87059749, 7150339.705, 211.65264577, 1541.1650337, 211.2072511518264832, -0.0000000117326672, -13.7236847169137111, 211.2072511518264832, -0.0000000117326672, -13.7236847169137111, 211.6526482741440134, -0.0000000123064435, -0.0020755058183468, 8776.0008341447, 8776.0008341447, 0.0000000006310132, -3.7171327692405511, 360.0000030591033351, -3.717700966793, -3.1761111004593e-09, 0.00048272971515602, -7.2727078860629e-15, 20934426.0000911355018616, -0.0000000026572632, 176.3772043982624780, 0.0034817270804311, 8776.0008341447, 20925650, 0.119843957, 0.041945385, 0.119843957, 0, 0, 0, 0, 0, 0, -5.20688141e-11, -0, -5.20688141e-11, -5.20688141e-11, -5.20688141e-11, -1.82240849e-11, -5.20688141e-11, 15, 0.5, 1, 0, 109.7678328, -0.0001203865573, -1.010114286e-08, 0.6351242719
0.84166633, 0, 0, 0, 0.5, 0, 0, 2.403293552, -1.116469518e-09, 15, 0.0000000034269973, 0.0000648470164213, -0.0000000016483222, 0.0000000127739995, 0.0001502756769534, -0.0000000063352649, 40.87059547, 7150339.526, 211.652640659, 1541.16503301, 211.2072455709472649, -0.0000000123639412, -13.7236917884297309, 211.2072455709472649, -0.0000000123639412, -13.7236917884297309, 211.6526432173459682, -0.0000000130102822, -0.0021224199254295, 8776.0008694232, 8776.0008694232, 0.0000000006880562, -3.7171220548603192, 360.0000030590766755, -3.717702975031, -3.3470012473283e-09, 0.00049238430561882, -7.8500532856274e-15, 20934426.0000963993370533, -0.0000000028682105, 179.9047470832898057, 0.0035513616220397, 8776.0008694232, 20925650, 0.119843957, 0.041945385, 0.119843957, 0, 0, 0, 0, 0, 0, -5.56744826e-11, -0, -5.56744826e-11, -5.56744826e-11, -5.56744826e-11, -1.94860689e-11, -5.56744826e-11, 15, 0.5, 1, 0, 109.7678298, -0.0001205955737, -1.0405786e-08, 0.6351242719
0.85833299, 0, 0, 0, 0.5, 0, 0, 2.403293552, -1.191992948e-09, 15, 0.0000000036484972, 0.0000673898066335, -0.0000000017585409, 0.0000000132903640, 0.0001525638502674, -0.0000000066134214, 40.87059341, 7150339.343, 211.65263544, 1541.1650323, 211.2072398807555373, -0.0000000130139950, -13.7236988641471154, 211.2072398807555373, -0.0000000130139950, -13.7236988641471154, 211.6526380518915857, -0.0000000137385129, -0.0021695011121494, 8776.0009054877, 8776.0009054877, 0.0000000007488357, -3.7171112984152921, 360.0000030590482538, -3.7177049863229, -3.5229752280067e-09, 0.00050203889584846, -8.4600599406775e-15, 20934426.0001018494367599, -0.0000000030910915, 183.4322896831396292, 0.0036209961636484, 8776.0009054877, 20925650, 0.119843957, 0.041945385, 0.119843957, 0, 0, 0, 0, 0, 0, -5.94405755e-11, -0, -5.94405755e-11, -5.94405755e-11, -5.94405755e-11, -2.08042014e-11, -5.94405755e-11, 15, 0.5, 1, 0, 109.7678268, -0.0001207532389, -1.071118651e-08, 0.6351242719
0.87499965, 0, 0, 0, 0.5, 0, 0, 2.403293552, -1.270789426e-09, 15, 0.0000000038786990, 0.0000699697636014, -0.0000000018734745, 0.0000000138124644, 0.0001547938297488, -0.0000000068963098, 40.8705913, 7150339.156, 211.652630111, 1541.16503158, 211.2072340811220101, -0.0000000136828711, -13.7237059409451501, 211.2072340811220101, -0.0000000136828711, -13.7237059409451501, 211.6526327774494973, -0.0000000144914327, -0.0022167485647930, 8776.0009423383, 8776.0009423383, 0.0000000008135010, -3.7171004992779251, 360.0000030590179563, -3.7177069998277, -3.7040445686987e-09, 0.00051169348583998, -9.1038472870091e-15, 20934426.0001074932515621, -0.0000000033263151, 186.9598321959984730, 0.003690630705257, 8776.0009423383, 20925650, 0.119843957, 0.041945385, 0.119843957, 0, 0, 0, 0, 0, 0, -6.3369884e-11, -0, -6.3369884e-11, -6.3369884e-11, -6.3369884e-11, -2.21794594e-11, -6.3369884e-11, 15, 0.5, 1, 0, 109.7678237, -0.0001208613623, -1.101721332e-08, 0.6351242719
0.89166631, 0, 0, 0, 0.5, 0, 0, 2.403293552, -1.35291339e-09, 15, 0.0000000041176930, 0.0000725859108755, -0.0000000019931997, 0.0000000143399743, 0.0001569652269277, -0.0000000071837976, 40.87058916, 7150338.966, 211.652624673, 1541.16503084, 211.2072281719096623, -0.0000000143706044, -13.7237130158135443, 211.2072281719096623, -0.0000000143706044, -13.7237130158135443, 211.6526273936881353, -0.0000000152693352, -0.0022641615213139, 8776.0009799749, 8776.0009799749, 0.0000000008822031, -3.7170896568368943, 360.0000030589856692, -3.7177090147349, -3.8902186458652e-09, 0.00052134807558839, -9.7825482309513e-15, 20934426.0001133307814598, -0.0000000035742952, 190.4873746200472624, 0.0037602652468656, 8776.0009799749, 20925650, 0.119843957, 0.041945385, 0.119843957, 0, 0, 0, 0, 0, 0, -6.74651227e-11, -0, -6.74651227e-11, -6.74651227e-11, -6.74651227e-11, -2.3612793e-11, -6.74651227e-11, 15, 0.5, 1, 0, 109.7678206, -0.0001209217304, -1.132373953e-08, 0.6351242719
0.90833297, 0, 0, 0, 0.5, 0, 0, 2.403293552, -1.438417719e-09, 15, 0.0000000043655640, 0.0000752372667425, -0.0000000021177909, 0.0000000148725710, 0.0001590777261950, -0.0000000074757507, 40.87058697, 7150338.772, 211.652619125, 1541.16503008, 211.2072221529739409, -0.0000000150772216, -13.7237200858509549, 211.2072221529739409, -0.0000000150772216, -13.7237200858509549, 211.6526219002750793, -0.0000000160725104, -0.0023117392694836, 8776.001018405, 8776.0010184012, 0.0000000009550943, -3.7170787704971997, 360.0000030589513358, -3.717711030263, -4.0815047552956e-09, 0.0005310026650887, -1.0497308988135e-14, 20934426.0001193657517433, -0.0000000038354507, 194.0149169534614657, 0.0038298997884742, 8776.0010184012, 20925650, 0.119843957, 0.041945385, 0.119843957, 0, 0, 0, 0, 0, 0, -7.17289286e-11, -0, -7.17289286e-11, -7.17289286e-11, -7.17289286e-11, -2.5105125e-11, -7.17289286e-11, 15, 0.5, 1, 0, 109.7678174, -0.0001209361054, -1.163064235e-08, 0.6351242719
0.92499963, 0, 0, 0, 0.5, 0, 0, 2.403293552, -1.527353721e-09, 15, 0.0000000046223913, 0.0000779228454604, -0.0000000022473203, 0.0000000154099356, 0.0001611310848132, -0.0000000077720340, 40.87058473, 7150338.573, 211.652613467, 1541.16502931, 211.2072160241627614, -0.0000000158027423, -13.7237271482634959, 211.2072160241627614, -0.0000000158027423, -13.7237271482634959, 211.6526162968777669, -0.0000000169012451, -0.0023594811451311, 8776.0010576323, 8776.0010576323, 0.0000000010323288, -3.7170678396802397, 360.0000030589148992, -3.7177130456602, -4.2779081803407e-09, 0.0005406572543359, -1.1249288928651e-14, 20934426.0001256018877029, -0.0000000041102051, 197.5424591944109807, 0.0038995343300828, 8776.0010576323, 20925650, 0.119843957, 0.041945385, 0.119843957, 0, 0, 0, 0, 0, 0, -7.61638601e-11, -0, -7.61638601e-11, -7.61638601e-11, -7.61638601e-11, -2.6657351e-11, -7.61638601e-11, 15, 0.5, 1, 0, 109.7678141, -0.0001209062221, -1.193780306e-08, 0.6351242719
0.94166629, 0, 0, 0, 0.5, 0, 0, 2.403293552, -1.619771124e-09, 15, 0.0000000048882493, 0.0000806416583300, -0.0000000023818578, 0.0000000159517537, 0.0001631251258212, -0.0000000080725116, 40.87058245, 7150338.371, 211.652607699, 1541.16502853, 211.2072097853165644, -0.0000000165471788, -13.7237342003630118, 211.2072097853165644, -0.0000000165471788, -13.7237342003630118, 211.6526105831625557, -0.0000000177558227, -0.0024073865302192, 8776.0010976531, 8776.0010976531, 0.0000000011140616, -3.7170568638238710, 360.0000030588762456, -3.7177150602029, -4.4794322592595e-09, 0.00055031184332497, -1.2039660428393e-14, 20934426.0001320391893387, -0.0000000043989868, 201.0700013410601343, 0.0039691688716915, 8776.0010976531, 20925650, 0.119843957, 0.041945385, 0.119843957, 0, 0, 0, 0, 0, 0, -8.07723972e-11, -0, -8.07723972e-11, -8.07723972e-11, -8.07723972e-11, -2.8270339e-11, -8.07723972e-11, 15, 0.5, 1, 0, 109.7678108, -0.0001208337903, -1.224510697e-08, 0.6351242719
0.95833295, 0, 0, 0, 0.5, 0, 0, 2.403293552, -1.715718068e-09, 15, 0.0000000051632070, 0.0000833927148407, -0.0000000025214710, 0.0000000164977153, 0.0001650597405626, -0.0000000083770470, 40.87058013, 7150338.165, 211.65260182, 1541.16502773, 211.2072034362684576, -0.0000000173105366, -13.7237412395656051, 211.2072034362684576, -0.0000000173105366, -13.7237412395656051, 211.6526047587958885, -0.0000000186365237, -0.0024554548510807, 8776.0011384748, 8776.0011384748, 0.0000000012004495, -3.7170458423824435, 360.0000030588353184, -3.7177170731962, -4.6860784515884e-09, 0.00055996643205086, -1.2869608726377e-14, 20934426.0001386813819408, -0.0000000047022289, 204.5975433915676831, 0.0040388034133001, 8776.0011384748, 20925650, 0.119843957, 0.041945385, 0.119843957, 0, 0, 0, 0, 0, 0, -8.55569402e-11, -0, -8.55569402e-11, -8.55569402e-11, -8.55569402e-11, -2.99449291e-11, -8.55569402e-11, 15, 0.5, 1, 0, 109.7678074, -0.0001207204952, -1.255244332e-08, 0.6351242719
0.97499961, 0, 0, 0, 0.5, 0, 0, 2.403293552, -1.815241095e-09, 15, 0.0000000054473283, 0.0000861750237024, -0.0000000026662254, 0.0000000170475152, 0.0001669348811530, -0.0000000086855033, 40.87057776, 7150337.955, 211.652595829, 1541.16502691, 211.2071969768442727, -0.0000000180928143, -13.7237482633899521, 211.2071969768442727, -0.0000000180928143, -13.7237482633899521, 211.6525988234430713, -0.0000000195436257, -0.0025036855767890, 8776.0011800937, 8776.0011800937, 0.0000000012916502, -3.7170347748268298, 360.0000030587920605, -3.7177190839727, -4.8978464036133e-09, 0.00056962102050853, -1.3740331787833e-14, 20934426.0001455284655094, -0.0000000050203690, 208.1250853440868696, 0.0041084379549087, 8776.0011800937, 20925650, 0.119843957, 0.041945385, 0.119843957, 0, 0, 0, 0, 0, 0, -9.05198101e-11, -0, -9.05198101e-11, -9.05198101e-11, -9.05198101e-11, -3.16819336e-11, -9.05198101e-11, 15, 0.5, 1, 0, 109.767804, -0.0001205679915, -1.285970526e-08, 0.6351242719
0.99166627, 0, 0, 0, 0.5, 0, 0, 2.403293552, -1.918385148e-09, 15, 0.0000000057406722, 0.0000889875939076, -0.0000000028161838, 0.0000000176008537, 0.0001687505653187, -0.0000000089977433, 40.87057535, 7150337.742, 211.652589727, 1541.16502608, 211.2071904068626225, -0.0000000188940041, -13.7237552694556477, 211.2071904068626225, -0.0000000188940041, -13.7237552694556477, 211.6525927767691257, -0.0000000204774034, -0.0025520782173363, 8776.0012225211, 8776.0012225211, 0.0000000013878224, -3.7170236606444234, 360.0000030587462447, -3.7177210918927, -5.1147340128556e-09, 0.00057927560869289, -1.4653040172872e-14, 20934426.0001525916159153, -0.0000000053538495, 211.6526271967653372, 0.0041780724965173, 8776.0012225211, 20925650, 0.119843957, 0.041945385, 0.119843957, 0, 0, 0, 0, 0, 0, -9.56632482e-11, -0, -9.56632482e-11, -9.56632482e-11, -9.56632482e-11, -3.34821369e-11, -9.56632482e-11, 15, 0.5, 1, 0, 109.7678005, -0.0001203779093, -1.316678979e-08, 0.6351242719
